{
"type": "FeatureCollection",
"name": "busStationsNearRailStations",
"crs": { "type": "name", "properties": { "name": "urn:ogc:def:crs:EPSG::3857" } },
"features": [
{ "type": "Feature", "properties": { "stop_id": 2243, "stop_code": 17380, "stop_name": "Ferry St & Moselle St", "stop_desc": null, "stop_lat": 42.914277, "stop_lon": -78.823982, "zone_id": 1, "wheelchair_boarding": 0 }, "geometry": { "type": "Point", "coordinates": [ -8774645.538538161665201, 5298933.021037898957729 ] } },
{ "type": "Feature", "properties": { "stop_id": 2247, "stop_code": 17280, "stop_name": "East Ferry St & Kehr St", "stop_desc": null, "stop_lat": 42.914488, "stop_lon": -78.832583, "zone_id": 1, "wheelchair_boarding": 0 }, "geometry": { "type": "Point", "coordinates": [ -8775602.997478475794196, 5298965.092734477482736 ] } },
{ "type": "Feature", "properties": { "stop_id": 2248, "stop_code": 17290, "stop_name": "East Ferry St & Kehr St", "stop_desc": null, "stop_lat": 42.914609, "stop_lon": -78.831972, "zone_id": 1, "wheelchair_boarding": 0 }, "geometry": { "type": "Point", "coordinates": [ -8775534.981269599869847, 5298983.484610015526414 ] } },
{ "type": "Feature", "properties": { "stop_id": 2258, "stop_code": 17390, "stop_name": "East Ferry St & Moselle St", "stop_desc": null, "stop_lat": 42.914518, "stop_lon": -78.824223, "zone_id": 1, "wheelchair_boarding": 0 }, "geometry": { "type": "Point", "coordinates": [ -8774672.366535441949964, 5298969.652700250037014 ] } },
{ "type": "Feature", "properties": { "stop_id": 2269, "stop_code": 17480, "stop_name": "East Ferry St & Schuele St", "stop_desc": null, "stop_lat": 42.914529, "stop_lon": -78.826322, "zone_id": 1, "wheelchair_boarding": 0 }, "geometry": { "type": "Point", "coordinates": [ -8774906.026146618649364, 5298971.324688256718218 ] } },
{ "type": "Feature", "properties": { "stop_id": 2391, "stop_code": 17060, "stop_name": "663 East Ferry St", "stop_desc": null, "stop_lat": 42.914538, "stop_lon": -78.836941, "zone_id": 1, "wheelchair_boarding": 0 }, "geometry": { "type": "Point", "coordinates": [ -8776088.12781935185194, 5298972.692678668536246 ] } },
{ "type": "Feature", "properties": { "stop_id": 2392, "stop_code": 17070, "stop_name": "663 East Ferry St", "stop_desc": null, "stop_lat": 42.914669, "stop_lon": -78.836731, "zone_id": 1, "wheelchair_boarding": 0 }, "geometry": { "type": "Point", "coordinates": [ -8776064.750726286321878, 5298992.604561689309776 ] } },
{ "type": "Feature", "properties": { "stop_id": 2396, "stop_code": 17110, "stop_name": "Ferry St & Ernst Ave", "stop_desc": null, "stop_lat": 42.914409, "stop_lon": -78.8266, "zone_id": 1, "wheelchair_boarding": 0 }, "geometry": { "type": "Point", "coordinates": [ -8774936.972965057939291, 5298953.084835219196975 ] } },
{ "type": "Feature", "properties": { "stop_id": 2401, "stop_code": 17160, "stop_name": "Ferry St & Grider St", "stop_desc": null, "stop_lat": 42.914338, "stop_lon": -78.828401, "zone_id": 1, "wheelchair_boarding": 0 }, "geometry": { "type": "Point", "coordinates": [ -8775137.459367975592613, 5298942.292938897386193 ] } },
{ "type": "Feature", "properties": { "stop_id": 2402, "stop_code": 17170, "stop_name": "East Ferry St & Grider St", "stop_desc": null, "stop_lat": 42.91456, "stop_lon": -78.828833, "zone_id": 1, "wheelchair_boarding": 0 }, "geometry": { "type": "Point", "coordinates": [ -8775185.549387998878956, 5298976.036656063981354 ] } },
{ "type": "Feature", "properties": { "stop_id": 2553, "stop_code": 18990, "stop_name": "French St & Kehr St", "stop_desc": null, "stop_lat": 42.910329, "stop_lon": -78.832603, "zone_id": 1, "wheelchair_boarding": 0 }, "geometry": { "type": "Point", "coordinates": [ -8775605.223868291825056, 5298332.950963051989675 ] } },
{ "type": "Feature", "properties": { "stop_id": 3246, "stop_code": 26240, "stop_name": "Kehr St & East Ferry St", "stop_desc": null, "stop_lat": 42.914307, "stop_lon": -78.832333, "zone_id": 1, "wheelchair_boarding": 0 }, "geometry": { "type": "Point", "coordinates": [ -8775575.167605776339769, 5298937.580988064408302 ] } },
{ "type": "Feature", "properties": { "stop_id": 3259, "stop_code": 26230, "stop_name": "Kehr St & Box Ave", "stop_desc": null, "stop_lat": 42.911469, "stop_lon": -78.832471, "zone_id": 1, "wheelchair_boarding": 0 }, "geometry": { "type": "Point", "coordinates": [ -8775590.529695505276322, 5298506.219529851339757 ] } },
{ "type": "Feature", "properties": { "stop_id": 3261, "stop_code": 26250, "stop_name": "Kehr St & East Ferry St", "stop_desc": null, "stop_lat": 42.91419, "stop_lon": -78.832514, "zone_id": 1, "wheelchair_boarding": 0 }, "geometry": { "type": "Point", "coordinates": [ -8775595.316433610394597, 5298919.797194983810186 ] } },
{ "type": "Feature", "properties": { "stop_id": 3262, "stop_code": 26260, "stop_name": "Kehr St & French St", "stop_desc": null, "stop_lat": 42.91057, "stop_lon": -78.832451, "zone_id": 1, "wheelchair_boarding": 0 }, "geometry": { "type": "Point", "coordinates": [ -8775588.303305691108108, 5298369.580278891138732 ] } },
{ "type": "Feature", "properties": { "stop_id": 3263, "stop_code": 26270, "stop_name": "Kehr St & Winslow Ave", "stop_desc": null, "stop_lat": 42.912767, "stop_lon": -78.832304, "zone_id": 1, "wheelchair_boarding": 0 }, "geometry": { "type": "Point", "coordinates": [ -8775571.93934054300189, 5298703.506414036266506 ] } },
{ "type": "Feature", "properties": { "stop_id": 3264, "stop_code": 26280, "stop_name": "Kehr St & Winslow Ave", "stop_desc": null, "stop_lat": 42.913228, "stop_lon": -78.832543, "zone_id": 1, "wheelchair_boarding": 0 }, "geometry": { "type": "Point", "coordinates": [ -8775598.544698841869831, 5298773.5761763677001 ] } },
{ "type": "Feature", "properties": { "stop_id": 3272, "stop_code": 26220, "stop_name": "Kehr St & Box Ave", "stop_desc": null, "stop_lat": 42.91111, "stop_lon": -78.83229, "zone_id": 1, "wheelchair_boarding": 0 }, "geometry": { "type": "Point", "coordinates": [ -8775570.38086767308414, 5298451.654784593731165 ] } },
{ "type": "Feature", "properties": { "stop_id": 3723, "stop_code": 22010, "stop_name": "Grider St & Scajaquada St", "stop_desc": null, "stop_lat": 42.916338, "stop_lon": -78.82901, "zone_id": 1, "wheelchair_boarding": 0 }, "geometry": { "type": "Point", "coordinates": [ -8775205.252937870100141, 5299246.294776356779039 ] } },
{ "type": "Feature", "properties": { "stop_id": 3750, "stop_code": 22020, "stop_name": "Grider St & Scajaquada St", "stop_desc": null, "stop_lat": 42.916538, "stop_lon": -78.82933, "zone_id": 1, "wheelchair_boarding": 0 }, "geometry": { "type": "Point", "coordinates": [ -8775240.875174924731255, 5299276.695502758957446 ] } },
{ "type": "Feature", "properties": { "stop_id": 3752, "stop_code": 21910, "stop_name": "Grider St & East Ferry St", "stop_desc": null, "stop_lat": 42.914647, "stop_lon": -78.82918, "zone_id": 1, "wheelchair_boarding": 0 }, "geometry": { "type": "Point", "coordinates": [ -8775224.177251305431128, 5298989.260578379034996 ] } },
{ "type": "Feature", "properties": { "stop_id": 3753, "stop_code": 21920, "stop_name": "Grider St & Ferry St", "stop_desc": null, "stop_lat": 42.91482, "stop_lon": -78.82901, "zone_id": 1, "wheelchair_boarding": 0 }, "geometry": { "type": "Point", "coordinates": [ -8775205.252937870100141, 5299015.556479370221496 ] } },
{ "type": "Feature", "properties": { "stop_id": 3759, "stop_code": 21980, "stop_name": "Grider St & Northland Ave", "stop_desc": null, "stop_lat": 42.918738, "stop_lon": -78.82901, "zone_id": 1, "wheelchair_boarding": 0 }, "geometry": { "type": "Point", "coordinates": [ -8775205.252937870100141, 5299611.110005534254014 ] } },
{ "type": "Feature", "properties": { "stop_id": 3760, "stop_code": 21990, "stop_name": "Grider St & Northland Ave", "stop_desc": null, "stop_lat": 42.919029, "stop_lon": -78.829233, "zone_id": 1, "wheelchair_boarding": 0 }, "geometry": { "type": "Point", "coordinates": [ -8775230.07718431763351, 5299655.344817967154086 ] } },
{ "type": "Feature", "properties": { "stop_id": 10935, "stop_code": 17485, "stop_name": "East Ferry St & True Bethel Baptist", "stop_desc": null, "stop_lat": 42.914477, "stop_lon": -78.830873, "zone_id": 1, "wheelchair_boarding": 0 }, "geometry": { "type": "Point", "coordinates": [ -8775412.641149217262864, 5298963.420747579075396 ] } },
{ "type": "Feature", "properties": { "stop_id": 662, "stop_code": 56210, "stop_name": "Walden Ave & Rother Ave", "stop_desc": null, "stop_lat": 42.903618, "stop_lon": -78.831561, "zone_id": 1, "wheelchair_boarding": 0 }, "geometry": { "type": "Point", "coordinates": [ -8775489.228958884254098, 5297313.0112249488011 ] } },
{ "type": "Feature", "properties": { "stop_id": 671, "stop_code": 56200, "stop_name": "Walden Ave & Rother Ave", "stop_desc": null, "stop_lat": 42.903557, "stop_lon": -78.831884, "zone_id": 1, "wheelchair_boarding": 0 }, "geometry": { "type": "Point", "coordinates": [ -8775525.185154410079122, 5297303.740936361253262 ] } },
{ "type": "Feature", "properties": { "stop_id": 673, "stop_code": 56220, "stop_name": "Walden Ave & Ruhland Ave", "stop_desc": null, "stop_lat": 42.903489, "stop_lon": -78.826153, "zone_id": 1, "wheelchair_boarding": 0 }, "geometry": { "type": "Point", "coordinates": [ -8774887.21315267495811, 5297293.406854977831244 ] } },
{ "type": "Feature", "properties": { "stop_id": 679, "stop_code": 56310, "stop_name": "Walden Ave & Sweet Ave", "stop_desc": null, "stop_lat": 42.903568, "stop_lon": -78.83375, "zone_id": 1, "wheelchair_boarding": 0 }, "geometry": { "type": "Point", "coordinates": [ -8775732.9073242302984, 5297305.412627065554261 ] } },
{ "type": "Feature", "properties": { "stop_id": 682, "stop_code": 56020, "stop_name": "Walden Ave & Ivy St", "stop_desc": null, "stop_lat": 42.903549, "stop_lon": -78.826141, "zone_id": 1, "wheelchair_boarding": 0 }, "geometry": { "type": "Point", "coordinates": [ -8774885.877318784594536, 5297302.525161487050354 ] } },
{ "type": "Feature", "properties": { "stop_id": 692, "stop_code": 56010, "stop_name": "Walden Ave & Howlett St", "stop_desc": null, "stop_lat": 42.9035, "stop_lon": -78.828121, "zone_id": 1, "wheelchair_boarding": 0 }, "geometry": { "type": "Point", "coordinates": [ -8775106.289910554885864, 5297295.078543839976192 ] } },
{ "type": "Feature", "properties": { "stop_id": 697, "stop_code": 56060, "stop_name": "Walden Ave & Lathrop St", "stop_desc": null, "stop_lat": 42.90353, "stop_lon": -78.830092, "zone_id": 1, "wheelchair_boarding": 0 }, "geometry": { "type": "Point", "coordinates": [ -8775325.700626907870173, 5297299.637696797959507 ] } },
{ "type": "Feature", "properties": { "stop_id": 699, "stop_code": 56100, "stop_name": "Walden Ave & Miller Ave", "stop_desc": null, "stop_lat": 42.9035, "stop_lon": -78.823912, "zone_id": 1, "wheelchair_boarding": 0 }, "geometry": { "type": "Point", "coordinates": [ -8774637.746173806488514, 5297295.078543839976192 ] } },
{ "type": "Feature", "properties": { "stop_id": 700, "stop_code": 56110, "stop_name": "Walden Ave & Moselle St", "stop_desc": null, "stop_lat": 42.903568, "stop_lon": -78.823994, "zone_id": 1, "wheelchair_boarding": 0 }, "geometry": { "type": "Point", "coordinates": [ -8774646.87437205016613, 5297305.412627065554261 ] } },
{ "type": "Feature", "properties": { "stop_id": 726, "stop_code": 56420, "stop_name": "Walden Ave & Wasmuth Ave", "stop_desc": null, "stop_lat": 42.903579, "stop_lon": -78.828393, "zone_id": 1, "wheelchair_boarding": 0 }, "geometry": { "type": "Point", "coordinates": [ -8775136.568812049925327, 5297307.084318072535098 ] } },
{ "type": "Feature", "properties": { "stop_id": 727, "stop_code": 56430, "stop_name": "Walden Ave & Woltz Ave", "stop_desc": null, "stop_lat": 42.903598, "stop_lon": -78.835344, "zone_id": 1, "wheelchair_boarding": 0 }, "geometry": { "type": "Point", "coordinates": [ -8775910.350592555478215, 5297309.971785056404769 ] } },
{ "type": "Feature", "properties": { "stop_id": 793, "stop_code": 55715, "stop_name": "Walden Ave & Bissell Ave", "stop_desc": null, "stop_lat": 42.903749, "stop_lon": -78.822672, "zone_id": 1, "wheelchair_boarding": 0 }, "geometry": { "type": "Point", "coordinates": [ -8774499.710005221888423, 5297332.919580617919564 ] } },
{ "type": "Feature", "properties": { "stop_id": 802, "stop_code": 55800, "stop_name": "Walden Ave & East Parade Ave", "stop_desc": null, "stop_lat": 42.903659, "stop_lon": -78.834741, "zone_id": 1, "wheelchair_boarding": 0 }, "geometry": { "type": "Point", "coordinates": [ -8775843.224939607083797, 5297319.242079807445407 ] } },
{ "type": "Feature", "properties": { "stop_id": 1000, "stop_code": 51690, "stop_name": "Sycamore St & Lathrop St", "stop_desc": null, "stop_lat": 42.900469, "stop_lon": -78.83016, "zone_id": 1, "wheelchair_boarding": 0 }, "geometry": { "type": "Point", "coordinates": [ -8775333.270352283492684, 5296834.463557868264616 ] } },
{ "type": "Feature", "properties": { "stop_id": 1002, "stop_code": 51870, "stop_name": "Sycamore St & Ruhland Ave", "stop_desc": null, "stop_lat": 42.901699, "stop_lon": -78.826271, "zone_id": 1, "wheelchair_boarding": 0 }, "geometry": { "type": "Point", "coordinates": [ -8774900.348852587863803, 5297021.381458804942667 ] } },
{ "type": "Feature", "properties": { "stop_id": 1018, "stop_code": 51750, "stop_name": "Sycamore St & Miller Ave", "stop_desc": null, "stop_lat": 42.902428, "stop_lon": -78.823931, "zone_id": 1, "wheelchair_boarding": 0 }, "geometry": { "type": "Point", "coordinates": [ -8774639.861244130879641, 5297132.166267430409789 ] } },
{ "type": "Feature", "properties": { "stop_id": 1019, "stop_code": 51760, "stop_name": "Sycamore St & Miller Ave", "stop_desc": null, "stop_lat": 42.902689, "stop_lon": -78.823473, "zone_id": 1, "wheelchair_boarding": 0 }, "geometry": { "type": "Point", "coordinates": [ -8774588.876917349174619, 5297171.830282798968256 ] } },
{ "type": "Feature", "properties": { "stop_id": 1027, "stop_code": 51833, "stop_name": "Sycamore St & Oberlin Ave", "stop_desc": null, "stop_lat": 42.90216, "stop_lon": -78.825082, "zone_id": 1, "wheelchair_boarding": 0 }, "geometry": { "type": "Point", "coordinates": [ -8774767.989978034049273, 5297091.438640936277807 ] } },
{ "type": "Feature", "properties": { "stop_id": 1083, "stop_code": 51700, "stop_name": "Sycamore St & Lathrop St", "stop_desc": null, "stop_lat": 42.900699, "stop_lon": -78.829732, "zone_id": 1, "wheelchair_boarding": 0 }, "geometry": { "type": "Point", "coordinates": [ -8775285.625610223039985, 5296869.41540224198252 ] } },
{ "type": "Feature", "properties": { "stop_id": 1132, "stop_code": 51630, "stop_name": "Sycamore St & Howlett St", "stop_desc": null, "stop_lat": 42.901119, "stop_lon": -78.82809, "zone_id": 1, "wheelchair_boarding": 0 }, "geometry": { "type": "Point", "coordinates": [ -8775102.839006340131164, 5296933.240845787338912 ] } },
{ "type": "Feature", "properties": { "stop_id": 1133, "stop_code": 51640, "stop_name": "Sycamore St & Howlett St", "stop_desc": null, "stop_lat": 42.901299, "stop_lon": -78.827771, "zone_id": 1, "wheelchair_boarding": 0 }, "geometry": { "type": "Point", "coordinates": [ -8775067.328088777139783, 5296960.594740404747427 ] } },
{ "type": "Feature", "properties": { "stop_id": 2444, "stop_code": 20290, "stop_name": "Genesee St & Kehr St", "stop_desc": null, "stop_lat": 42.905399, "stop_lon": -78.831873, "zone_id": 1, "wheelchair_boarding": 0 }, "geometry": { "type": "Point", "coordinates": [ -8775523.960640011355281, 5297583.677300897426903 ] } },
{ "type": "Feature", "properties": { "stop_id": 2449, "stop_code": 20340, "stop_name": "Genesee St & Latour St", "stop_desc": null, "stop_lat": 42.904708, "stop_lon": -78.833461, "zone_id": 1, "wheelchair_boarding": 0 }, "geometry": { "type": "Point", "coordinates": [ -8775700.735991390421987, 5297478.662190321832895 ] } },
{ "type": "Feature", "properties": { "stop_id": 2450, "stop_code": 20360, "stop_name": "Genesee St & Louisen St", "stop_desc": null, "stop_lat": 42.906289, "stop_lon": -78.829641, "zone_id": 1, "wheelchair_boarding": 0 }, "geometry": { "type": "Point", "coordinates": [ -8775275.495536560192704, 5297718.937281979247928 ] } },
{ "type": "Feature", "properties": { "stop_id": 2463, "stop_code": 20520, "stop_name": "Genesee St & Moselle St", "stop_desc": null, "stop_lat": 42.90826, "stop_lon": -78.824571, "zone_id": 1, "wheelchair_boarding": 0 }, "geometry": { "type": "Point", "coordinates": [ -8774711.105718238279223, 5298018.491899363696575 ] } },
{ "type": "Feature", "properties": { "stop_id": 2464, "stop_code": 20530, "stop_name": "Genesee St & Moselle St", "stop_desc": null, "stop_lat": 42.908589, "stop_lon": -78.823832, "zone_id": 1, "wheelchair_boarding": 0 }, "geometry": { "type": "Point", "coordinates": [ -8774628.840614542365074, 5298068.494592307135463 ] } },
{ "type": "Feature", "properties": { "stop_id": 2469, "stop_code": 19950, "stop_name": "Genesee St & East Parade Ave", "stop_desc": null, "stop_lat": 42.903979, "stop_lon": -78.835244, "zone_id": 1, "wheelchair_boarding": 0 }, "geometry": { "type": "Point", "coordinates": [ -8775899.218643475323915, 5297367.873284518718719 ] } },
{ "type": "Feature", "properties": { "stop_id": 2470, "stop_code": 19960, "stop_name": "Genesee St & East Parade Ave", "stop_desc": null, "stop_lat": 42.903968, "stop_lon": -78.835333, "zone_id": 1, "wheelchair_boarding": 0 }, "geometry": { "type": "Point", "coordinates": [ -8775909.126078156754375, 5297366.201582665555179 ] } },
{ "type": "Feature", "properties": { "stop_id": 2539, "stop_code": 20750, "stop_name": "Genesee St & Rohr St", "stop_desc": null, "stop_lat": 42.90561, "stop_lon": -78.831161, "zone_id": 1, "wheelchair_boarding": 0 }, "geometry": { "type": "Point", "coordinates": [ -8775444.701162565499544, 5297615.744378234259784 ] } },
{ "type": "Feature", "properties": { "stop_id": 2611, "stop_code": 19740, "stop_name": "Genesee St & Barthel St", "stop_desc": null, "stop_lat": 42.907109, "stop_lon": -78.827461, "zone_id": 1, "wheelchair_boarding": 0 }, "geometry": { "type": "Point", "coordinates": [ -8775032.819046631455421, 5297843.560566084459424 ] } },
{ "type": "Feature", "properties": { "stop_id": 2612, "stop_code": 19750, "stop_name": "Genesee St & Barthel St", "stop_desc": null, "stop_lat": 42.907479, "stop_lon": -78.826653, "zone_id": 1, "wheelchair_boarding": 0 }, "geometry": { "type": "Point", "coordinates": [ -8774942.872898070141673, 5297899.793566328473389 ] } },
{ "type": "Feature", "properties": { "stop_id": 11514, "stop_code": 56080, "stop_name": "Walden Ave & Latour St", "stop_desc": null, "stop_lat": 42.903659, "stop_lon": -78.833222, "zone_id": 0, "wheelchair_boarding": 0 }, "geometry": { "type": "Point", "coordinates": [ -8775674.130633093416691, 5297319.242079807445407 ] } },
{ "type": "Feature", "properties": { "stop_id": 1772, "stop_code": 1730, "stop_name": "Amherst St & Duane Terrace", "stop_desc": null, "stop_lat": 42.940367, "stop_lon": -78.8432, "zone_id": 1, "wheelchair_boarding": 0 }, "geometry": { "type": "Point", "coordinates": [ -8776784.876512227579951, 5302899.49654018227011 ] } },
{ "type": "Feature", "properties": { "stop_id": 1782, "stop_code": 1840, "stop_name": "Amherst St & Greenfield St", "stop_desc": null, "stop_lat": 42.94042, "stop_lon": -78.845101, "zone_id": 1, "wheelchair_boarding": 0 }, "geometry": { "type": "Point", "coordinates": [ -8776996.494864225387573, 5302907.555866433307528 ] } },
{ "type": "Feature", "properties": { "stop_id": 1794, "stop_code": 1800, "stop_name": "Amherst St & Fairfield St", "stop_desc": null, "stop_lat": 42.94025, "stop_lon": -78.843763, "zone_id": 1, "wheelchair_boarding": 0 }, "geometry": { "type": "Point", "coordinates": [ -8776847.549385543912649, 5302881.705221889540553 ] } },
{ "type": "Feature", "properties": { "stop_id": 2236, "stop_code": 17710, "stop_name": "Fillmore Ave & Dewey Ave", "stop_desc": null, "stop_lat": 42.931168, "stop_lon": -78.839062, "zone_id": 1, "wheelchair_boarding": 0 }, "geometry": { "type": "Point", "coordinates": [ -8776324.236459324136376, 5301500.776298091746867 ] } },
{ "type": "Feature", "properties": { "stop_id": 2237, "stop_code": 17720, "stop_name": "Fillmore Ave & Dewey Ave", "stop_desc": null, "stop_lat": 42.93144, "stop_lon": -78.839281, "zone_id": 1, "wheelchair_boarding": 0 }, "geometry": { "type": "Point", "coordinates": [ -8776348.615427806973457, 5301542.131264043971896 ] } },
{ "type": "Feature", "properties": { "stop_id": 2273, "stop_code": 18090, "stop_name": "Fillmore Ave & Rodney Ave", "stop_desc": null, "stop_lat": 42.935978, "stop_lon": -78.839071, "zone_id": 1, "wheelchair_boarding": 0 }, "geometry": { "type": "Point", "coordinates": [ -8776325.238334741443396, 5302232.117162110283971 ] } },
{ "type": "Feature", "properties": { "stop_id": 2274, "stop_code": 18100, "stop_name": "Fillmore Ave & Rodney Ave", "stop_desc": null, "stop_lat": 42.936189, "stop_lon": -78.839252, "zone_id": 1, "wheelchair_boarding": 0 }, "geometry": { "type": "Point", "coordinates": [ -8776345.387162575498223, 5302264.200158596970141 ] } },
{ "type": "Feature", "properties": { "stop_id": 2282, "stop_code": 18190, "stop_name": "Fillmore Ave & Wakefield Ave", "stop_desc": null, "stop_lat": 42.934709, "stop_lon": -78.839073, "zone_id": 1, "wheelchair_boarding": 0 }, "geometry": { "type": "Point", "coordinates": [ -8776325.460973722860217, 5302039.165345498360693 ] } },
{ "type": "Feature", "properties": { "stop_id": 2314, "stop_code": 17940, "stop_name": "Fillmore Ave & Leroy Ave", "stop_desc": null, "stop_lat": 42.932749, "stop_lon": -78.839084, "zone_id": 1, "wheelchair_boarding": 0 }, "geometry": { "type": "Point", "coordinates": [ -8776326.685488121584058, 5301741.154592170380056 ] } },
{ "type": "Feature", "properties": { "stop_id": 2315, "stop_code": 17950, "stop_name": "Fillmore Ave & Leroy Ave", "stop_desc": null, "stop_lat": 42.933018, "stop_lon": -78.839272, "zone_id": 1, "wheelchair_boarding": 0 }, "geometry": { "type": "Point", "coordinates": [ -8776347.613552389666438, 5301782.05448608379811 ] } },
{ "type": "Feature", "properties": { "stop_id": 2316, "stop_code": 17960, "stop_name": "Fillmore Ave & Main St", "stop_desc": null, "stop_lat": 42.938468, "stop_lon": -78.839262, "zone_id": 1, "wheelchair_boarding": 0 }, "geometry": { "type": "Point", "coordinates": [ -8776346.500357482582331, 5302610.733937333337963 ] } },
{ "type": "Feature", "properties": { "stop_id": 2317, "stop_code": 17970, "stop_name": "Fillmore Ave & Main St", "stop_desc": null, "stop_lat": 42.938759, "stop_lon": -78.839042, "zone_id": 1, "wheelchair_boarding": 0 }, "geometry": { "type": "Point", "coordinates": [ -8776322.010069509968162, 5302654.982921114191413 ] } },
{ "type": "Feature", "properties": { "stop_id": 2326, "stop_code": 17910, "stop_name": "Fillmore Ave & Jewett Parkway", "stop_desc": null, "stop_lat": 42.934158, "stop_lon": -78.839271, "zone_id": 1, "wheelchair_boarding": 0 }, "geometry": { "type": "Point", "coordinates": [ -8776347.50223289988935, 5301955.386874320916831 ] } },
{ "type": "Feature", "properties": { "stop_id": 3348, "stop_code": 30480, "stop_name": "Main St & Jewett Parkway", "stop_desc": null, "stop_lat": 42.93489, "stop_lon": -78.843653, "zone_id": 1, "wheelchair_boarding": 0 }, "geometry": { "type": "Point", "coordinates": [ -8776835.304241556674242, 5302066.686204673722386 ] } },
{ "type": "Feature", "properties": { "stop_id": 3349, "stop_code": 30490, "stop_name": "Main St & Jewett Ave", "stop_desc": null, "stop_lat": 42.935018, "stop_lon": -78.843914, "zone_id": 1, "wheelchair_boarding": 0 }, "geometry": { "type": "Point", "coordinates": [ -8776864.358628652989864, 5302086.148518553003669 ] } },
{ "type": "Feature", "properties": { "stop_id": 3373, "stop_code": 30160, "stop_name": "Main St & Fillmore Ave", "stop_desc": null, "stop_lat": 42.937978, "stop_lon": -78.840182, "zone_id": 1, "wheelchair_boarding": 0 }, "geometry": { "type": "Point", "coordinates": [ -8776448.914289012551308, 5302536.225811737589538 ] } },
{ "type": "Feature", "properties": { "stop_id": 3374, "stop_code": 30170, "stop_name": "Main St & Fillmore Ave", "stop_desc": null, "stop_lat": 42.938978, "stop_lon": -78.839524, "zone_id": 1, "wheelchair_boarding": 0 }, "geometry": { "type": "Point", "coordinates": [ -8776375.666064070537686, 5302688.283840633928776 ] } },
{ "type": "Feature", "properties": { "stop_id": 3418, "stop_code": 30650, "stop_name": "Main St & Leroy Ave", "stop_desc": null, "stop_lat": 42.932708, "stop_lon": -78.845922, "zone_id": 1, "wheelchair_boarding": 0 }, "geometry": { "type": "Point", "coordinates": [ -8777087.888166166841984, 5301734.920795029960573 ] } },
{ "type": "Feature", "properties": { "stop_id": 3535, "stop_code": 29510, "stop_name": "Main St & Amherst Station", "stop_desc": null, "stop_lat": 42.939699, "stop_lon": -78.838781, "zone_id": 1, "wheelchair_boarding": 0 }, "geometry": { "type": "Point", "coordinates": [ -8776292.955682409927249, 5302797.919211621396244 ] } },
{ "type": "Feature", "properties": { "stop_id": 4552, "stop_code": 31690, "stop_name": "Main St & West Oakwood Place", "stop_desc": null, "stop_lat": 42.932489, "stop_lon": -78.846601, "zone_id": 1, "wheelchair_boarding": 0 }, "geometry": { "type": "Point", "coordinates": [ -8777163.474100416526198, 5301701.623265967704356 ] } },
{ "type": "Feature", "properties": { "stop_id": 4564, "stop_code": 31250, "stop_name": "Main St & Rodney Ave", "stop_desc": null, "stop_lat": 42.935599, "stop_lon": -78.84285, "zone_id": 1, "wheelchair_boarding": 0 }, "geometry": { "type": "Point", "coordinates": [ -8776745.91469044983387, 5302174.489686191082001 ] } },
{ "type": "Feature", "properties": { "stop_id": 4565, "stop_code": 31260, "stop_name": "Main St & Rodney Ave", "stop_desc": null, "stop_lat": 42.936608, "stop_lon": -78.842173, "zone_id": 1, "wheelchair_boarding": 0 }, "geometry": { "type": "Point", "coordinates": [ -8776670.551395181566477, 5302327.910321121104062 ] } },
{ "type": "Feature", "properties": { "stop_id": 10737, "stop_code": 17657, "stop_name": "Fillmore Ave & Chalmers Ave", "stop_desc": null, "stop_lat": 42.937679, "stop_lon": -78.839073, "zone_id": 1, "wheelchair_boarding": 0 }, "geometry": { "type": "Point", "coordinates": [ -8776325.460973722860217, 5302490.760940671898425 ] } },
{ "type": "Feature", "properties": { "stop_id": 1792, "stop_code": 1960, "stop_name": "Amherst St & New Amsterdam Ave", "stop_desc": null, "stop_lat": 42.940458, "stop_lon": -78.862283, "zone_id": 1, "wheelchair_boarding": 0 }, "geometry": { "type": "Point", "coordinates": [ -8778909.186355035752058, 5302913.334255562163889 ] } },
{ "type": "Feature", "properties": { "stop_id": 1821, "stop_code": 1650, "stop_name": "Amherst St & Colvin Ave", "stop_desc": null, "stop_lat": 42.941129, "stop_lon": -78.855742, "zone_id": 1, "wheelchair_boarding": 0 }, "geometry": { "type": "Point", "coordinates": [ -8778181.045565757900476, 5303015.369030024856329 ] } },
{ "type": "Feature", "properties": { "stop_id": 1824, "stop_code": 1970, "stop_name": "Amherst St & New Amsterdam Ave", "stop_desc": null, "stop_lat": 42.940537, "stop_lon": -78.861792, "zone_id": 1, "wheelchair_boarding": 0 }, "geometry": { "type": "Point", "coordinates": [ -8778854.528485054150224, 5302925.347233844920993 ] } },
{ "type": "Feature", "properties": { "stop_id": 1852, "stop_code": 1990, "stop_name": "Amherst St & Nichols School", "stop_desc": null, "stop_lat": 42.940989, "stop_lon": -78.856971, "zone_id": 1, "wheelchair_boarding": 0 }, "geometry": { "type": "Point", "coordinates": [ -8778317.857219940051436, 5302994.080013594590127 ] } },
{ "type": "Feature", "properties": { "stop_id": 1853, "stop_code": 2000, "stop_name": "Amherst St & Nottingham Terrace", "stop_desc": null, "stop_lat": 42.94042, "stop_lon": -78.860422, "zone_id": 1, "wheelchair_boarding": 0 }, "geometry": { "type": "Point", "coordinates": [ -8778702.020782670006156, 5302907.555866433307528 ] } },
{ "type": "Feature", "properties": { "stop_id": 1854, "stop_code": 2010, "stop_name": "Amherst St & Nottingham Terrace", "stop_desc": null, "stop_lat": 42.940548, "stop_lon": -78.860062, "zone_id": 1, "wheelchair_boarding": 0 }, "geometry": { "type": "Point", "coordinates": [ -8778661.945765983313322, 5302927.019928250461817 ] } },
{ "type": "Feature", "properties": { "stop_id": 2808, "stop_code": 10780, "stop_name": "Colvin Ave & Hertel Ave", "stop_desc": null, "stop_lat": 42.948048, "stop_lon": -78.858923, "zone_id": 1, "wheelchair_boarding": 0 }, "geometry": { "type": "Point", "coordinates": [ -8778535.152865970507264, 5304067.562956529669464 ] } },
{ "type": "Feature", "properties": { "stop_id": 2809, "stop_code": 10790, "stop_name": "Colvin Ave & Hertel Ave", "stop_desc": null, "stop_lat": 42.947939, "stop_lon": -78.859081, "zone_id": 1, "wheelchair_boarding": 0 }, "geometry": { "type": "Point", "coordinates": [ -8778552.741345515474677, 5304050.986069425009191 ] } },
{ "type": "Feature", "properties": { "stop_id": 3623, "stop_code": 23370, "stop_name": "Hertel Ave & Colvin Ave", "stop_desc": null, "stop_lat": 42.947678, "stop_lon": -78.859233, "zone_id": 1, "wheelchair_boarding": 0 }, "geometry": { "type": "Point", "coordinates": [ -8778569.661908116191626, 5304011.29290859401226 ] } },
{ "type": "Feature", "properties": { "stop_id": 3624, "stop_code": 23380, "stop_name": "Hertel Ave & Colvin Ave", "stop_desc": null, "stop_lat": 42.947799, "stop_lon": -78.858794, "zone_id": 1, "wheelchair_boarding": 0 }, "geometry": { "type": "Point", "coordinates": [ -8778520.792651657015085, 5304029.694697861559689 ] } },
{ "type": "Feature", "properties": { "stop_id": 3765, "stop_code": 23400, "stop_name": "Hertel Ave & Commonwealth Ave", "stop_desc": null, "stop_lat": 42.947848, "stop_lon": -78.861683, "zone_id": 1, "wheelchair_boarding": 0 }, "geometry": { "type": "Point", "coordinates": [ -8778842.39466055855155, 5304037.146672402508557 ] } },
{ "type": "Feature", "properties": { "stop_id": 3886, "stop_code": 23870, "stop_name": "Hertel Ave & Sterling Ave", "stop_desc": null, "stop_lat": 42.947728, "stop_lon": -78.852943, "zone_id": 1, "wheelchair_boarding": 0 }, "geometry": { "type": "Point", "coordinates": [ -8777869.462311025708914, 5304018.896949359215796 ] } },
{ "type": "Feature", "properties": { "stop_id": 3887, "stop_code": 23690, "stop_name": "Hertel Ave & North Park Ave", "stop_desc": null, "stop_lat": 42.947758, "stop_lon": -78.855582, "zone_id": 1, "wheelchair_boarding": 0 }, "geometry": { "type": "Point", "coordinates": [ -8778163.234447229653597, 5304023.459376787766814 ] } },
{ "type": "Feature", "properties": { "stop_id": 3899, "stop_code": 23860, "stop_name": "Hertel Ave & Sterling Ave", "stop_desc": null, "stop_lat": 42.947629, "stop_lon": -78.853273, "zone_id": 1, "wheelchair_boarding": 0 }, "geometry": { "type": "Point", "coordinates": [ -8777906.197742987424135, 5304003.840954632498324 ] } },
{ "type": "Feature", "properties": { "stop_id": 3925, "stop_code": 23680, "stop_name": "Hertel Ave & North Park Ave", "stop_desc": null, "stop_lat": 42.947659, "stop_lon": -78.856073, "zone_id": 1, "wheelchair_boarding": 0 }, "geometry": { "type": "Point", "coordinates": [ -8778217.892317207530141, 5304008.403374723158777 ] } },
{ "type": "Feature", "properties": { "stop_id": 1769, "stop_code": 1700, "stop_name": "Amherst St & Delaware Ave", "stop_desc": null, "stop_lat": 42.94048, "stop_lon": -78.868051, "zone_id": 1, "wheelchair_boarding": 0 }, "geometry": { "type": "Point", "coordinates": [ -8779551.277177929878235, 5302916.679640370421112 ] } },
{ "type": "Feature", "properties": { "stop_id": 1770, "stop_code": 1710, "stop_name": "Amherst St & Delaware Ave", "stop_desc": null, "stop_lat": 42.940578, "stop_lon": -78.868252, "zone_id": 1, "wheelchair_boarding": 0 }, "geometry": { "type": "Point", "coordinates": [ -8779573.652395579963923, 5302931.581823589280248 ] } },
{ "type": "Feature", "properties": { "stop_id": 1771, "stop_code": 1720, "stop_name": "Amherst St & Delaware Ave", "stop_desc": null, "stop_lat": 42.940578, "stop_lon": -78.867133, "zone_id": 1, "wheelchair_boarding": 0 }, "geometry": { "type": "Point", "coordinates": [ -8779449.085885381326079, 5302931.581823589280248 ] } },
{ "type": "Feature", "properties": { "stop_id": 1775, "stop_code": 1760, "stop_name": "Amherst St & Edge Park Ave", "stop_desc": null, "stop_lat": 42.940559, "stop_lon": -78.863394, "zone_id": 1, "wheelchair_boarding": 0 }, "geometry": { "type": "Point", "coordinates": [ -8779032.86230930685997, 5302928.692622949369252 ] } },
{ "type": "Feature", "properties": { "stop_id": 1784, "stop_code": 1880, "stop_name": "Amherst St & Lincoln Parkway", "stop_desc": null, "stop_lat": 42.94048, "stop_lon": -78.872471, "zone_id": 1, "wheelchair_boarding": 0 }, "geometry": { "type": "Point", "coordinates": [ -8780043.309327237308025, 5302916.679640370421112 ] } },
{ "type": "Feature", "properties": { "stop_id": 1785, "stop_code": 1890, "stop_name": "Amherst St & Lincoln Parkway", "stop_desc": null, "stop_lat": 42.940598, "stop_lon": -78.8721, "zone_id": 1, "wheelchair_boarding": 0 }, "geometry": { "type": "Point", "coordinates": [ -8780002.009796151891351, 5302934.623088386841118 ] } },
{ "type": "Feature", "properties": { "stop_id": 2675, "stop_code": 12415, "stop_name": "Delaware Ave & Amherst St", "stop_desc": null, "stop_lat": 42.940789, "stop_lon": -78.867393, "zone_id": 1, "wheelchair_boarding": 0 }, "geometry": { "type": "Point", "coordinates": [ -8779478.028952989727259, 5302963.667216958478093 ] } },
{ "type": "Feature", "properties": { "stop_id": 2691, "stop_code": 12420, "stop_name": "Delaware Ave & Amherst St", "stop_desc": null, "stop_lat": 42.94025, "stop_lon": -78.8677, "zone_id": 1, "wheelchair_boarding": 0 }, "geometry": { "type": "Point", "coordinates": [ -8779512.20403666049242, 5302881.705221889540553 ] } },
{ "type": "Feature", "properties": { "stop_id": 2740, "stop_code": 13130, "stop_name": "Delaware Ave & Linden Ave", "stop_desc": null, "stop_lat": 42.9445, "stop_lon": -78.867993, "zone_id": 1, "wheelchair_boarding": 0 }, "geometry": { "type": "Point", "coordinates": [ -8779544.820647463202477, 5303527.992749498225749 ] } },
{ "type": "Feature", "properties": { "stop_id": 2741, "stop_code": 13140, "stop_name": "Delaware Ave & Linden Ave", "stop_desc": null, "stop_lat": 42.945059, "stop_lon": -78.868333, "zone_id": 1, "wheelchair_boarding": 0 }, "geometry": { "type": "Point", "coordinates": [ -8779582.66927433386445, 5303613.001887932419777 ] } },
{ "type": "Feature", "properties": { "stop_id": 2771, "stop_code": 12850, "stop_name": "Delaware Ave & Great Arrow Ave", "stop_desc": null, "stop_lat": 42.942349, "stop_lon": -78.86803, "zone_id": 1, "wheelchair_boarding": 0 }, "geometry": { "type": "Point", "coordinates": [ -8779548.939468624070287, 5303200.889650776050985 ] } },
{ "type": "Feature", "properties": { "stop_id": 2772, "stop_code": 12860, "stop_name": "Delaware Ave & Hertel Ave", "stop_desc": null, "stop_lat": 42.947478, "stop_lon": -78.868612, "zone_id": 1, "wheelchair_boarding": 0 }, "geometry": { "type": "Point", "coordinates": [ -8779613.727412264794111, 5303980.876807292923331 ] } },
{ "type": "Feature", "properties": { "stop_id": 2773, "stop_code": 12870, "stop_name": "Delaware Ave & Hertel Ave", "stop_desc": null, "stop_lat": 42.947958, "stop_lon": -78.868421, "zone_id": 1, "wheelchair_boarding": 0 }, "geometry": { "type": "Point", "coordinates": [ -8779592.465389523655176, 5304053.875616442412138 ] } },
{ "type": "Feature", "properties": { "stop_id": 3044, "stop_code": 13430, "stop_name": "Delaware Ave & Rand Ave", "stop_desc": null, "stop_lat": 42.942269, "stop_lon": -78.867653, "zone_id": 1, "wheelchair_boarding": 0 }, "geometry": { "type": "Point", "coordinates": [ -8779506.972020594403148, 5303188.724251543171704 ] } },
{ "type": "Feature", "properties": { "stop_id": 3622, "stop_code": 23360, "stop_name": "Hertel Ave & Camden Ave", "stop_desc": null, "stop_lat": 42.947818, "stop_lon": -78.87245, "zone_id": 1, "wheelchair_boarding": 0 }, "geometry": { "type": "Point", "coordinates": [ -8780040.971617929637432, 5304032.584238305687904 ] } },
{ "type": "Feature", "properties": { "stop_id": 3894, "stop_code": 23940, "stop_name": "Hertel Ave & Virgil Ave", "stop_desc": null, "stop_lat": 42.947837, "stop_lon": -78.8643, "zone_id": 1, "wheelchair_boarding": 0 }, "geometry": { "type": "Point", "coordinates": [ -8779133.717767965048552, 5304035.473779640160501 ] } },
{ "type": "Feature", "properties": { "stop_id": 3900, "stop_code": 23560, "stop_name": "Hertel Ave & K mart", "stop_desc": null, "stop_lat": 42.947818, "stop_lon": -78.870732, "zone_id": 1, "wheelchair_boarding": 0 }, "geometry": { "type": "Point", "coordinates": [ -8779849.724732749164104, 5304032.584238305687904 ] } },
{ "type": "Feature", "properties": { "stop_id": 3902, "stop_code": 23430, "stop_name": "Hertel Ave & Delaware Ave", "stop_desc": null, "stop_lat": 42.94772, "stop_lon": -78.868082, "zone_id": 1, "wheelchair_boarding": 0 }, "geometry": { "type": "Point", "coordinates": [ -8779554.728082144632936, 5304017.680302420631051 ] } },
{ "type": "Feature", "properties": { "stop_id": 3903, "stop_code": 23440, "stop_name": "Hertel Ave & Delaware Ave", "stop_desc": null, "stop_lat": 42.947837, "stop_lon": -78.86813, "zone_id": 1, "wheelchair_boarding": 0 }, "geometry": { "type": "Point", "coordinates": [ -8779560.071417702361941, 5304035.473779640160501 ] } },
{ "type": "Feature", "properties": { "stop_id": 3908, "stop_code": 23490, "stop_name": "Hertel Ave & Fairchild Place", "stop_desc": null, "stop_lat": 42.947728, "stop_lon": -78.864451, "zone_id": 1, "wheelchair_boarding": 0 }, "geometry": { "type": "Point", "coordinates": [ -8779150.527011075988412, 5304018.896949359215796 ] } },
{ "type": "Feature", "properties": { "stop_id": 3915, "stop_code": 23570, "stop_name": "Hertel Ave & K-Mart", "stop_desc": null, "stop_lat": 42.947728, "stop_lon": -78.870643, "zone_id": 1, "wheelchair_boarding": 0 }, "geometry": { "type": "Point", "coordinates": [ -8779839.817298065871, 5304018.896949359215796 ] } },
{ "type": "Feature", "properties": { "stop_id": 10679, "stop_code": 1705, "stop_name": "Amherst St & Delaware Ave", "stop_desc": null, "stop_lat": 42.940469, "stop_lon": -78.866801, "zone_id": 1, "wheelchair_boarding": 0 }, "geometry": { "type": "Point", "coordinates": [ -8779412.127814438194036, 5302915.006947816349566 ] } },
{ "type": "Feature", "properties": { "stop_id": 11346, "stop_code": 12865, "stop_name": "Delaware Ave & Hertel Ave", "stop_desc": null, "stop_lat": 42.947648, "stop_lon": -78.868352, "zone_id": 1, "wheelchair_boarding": 0 }, "geometry": { "type": "Point", "coordinates": [ -8779584.784344660118222, 5304006.730487096123397 ] } },
{ "type": "Feature", "properties": { "stop_id": 1768, "stop_code": 1973, "stop_name": "Amherst St & Elmwood Ave", "stop_desc": null, "stop_lat": 42.940639, "stop_lon": -78.87956, "zone_id": 1, "wheelchair_boarding": 0 }, "geometry": { "type": "Point", "coordinates": [ -8780832.453197469934821, 5302940.85768430493772 ] } },
{ "type": "Feature", "properties": { "stop_id": 1777, "stop_code": 1780, "stop_name": "Amherst St & Elmwood Ave", "stop_desc": null, "stop_lat": 42.94051, "stop_lon": -78.878801, "zone_id": 1, "wheelchair_boarding": 0 }, "geometry": { "type": "Point", "coordinates": [ -8780747.961703957989812, 5302921.241530675441027 ] } },
{ "type": "Feature", "properties": { "stop_id": 1778, "stop_code": 1790, "stop_name": "Amherst St & Elmwood Ave", "stop_desc": null, "stop_lat": 42.940609, "stop_lon": -78.877752, "zone_id": 1, "wheelchair_boarding": 0 }, "geometry": { "type": "Point", "coordinates": [ -8780631.187558116391301, 5302936.295784447342157 ] } },
{ "type": "Feature", "properties": { "stop_id": 1814, "stop_code": 1540, "stop_name": "601 Amherst St", "stop_desc": null, "stop_lat": 42.940458, "stop_lon": -78.881811, "zone_id": 1, "wheelchair_boarding": 0 }, "geometry": { "type": "Point", "coordinates": [ -8781083.033371245488524, 5302913.334255562163889 ] } },
{ "type": "Feature", "properties": { "stop_id": 1816, "stop_code": 1600, "stop_name": "Amherst St & Bridgeman St", "stop_desc": null, "stop_lat": 42.940658, "stop_lon": -78.882981, "zone_id": 1, "wheelchair_boarding": 0 }, "geometry": { "type": "Point", "coordinates": [ -8781213.277175473049283, 5302943.746888702735305 ] } },
{ "type": "Feature", "properties": { "stop_id": 2895, "stop_code": 14960, "stop_name": "1750 Elmwood Ave", "stop_desc": null, "stop_lat": 42.945897, "stop_lon": -78.878442, "zone_id": 1, "wheelchair_boarding": 0 }, "geometry": { "type": "Point", "coordinates": [ -8780707.998006764799356, 5303740.44100478105247 ] } },
{ "type": "Feature", "properties": { "stop_id": 2896, "stop_code": 14970, "stop_name": "1771 Elmwood Ave", "stop_desc": null, "stop_lat": 42.945618, "stop_lon": -78.878051, "zone_id": 1, "wheelchair_boarding": 0 }, "geometry": { "type": "Point", "coordinates": [ -8780664.472085863351822, 5303698.011798294261098 ] } },
{ "type": "Feature", "properties": { "stop_id": 2907, "stop_code": 15100, "stop_name": "Elmwood Ave & Amherst St", "stop_desc": null, "stop_lat": 42.940439, "stop_lon": -78.878442, "zone_id": 1, "wheelchair_boarding": 0 }, "geometry": { "type": "Point", "coordinates": [ -8780707.998006764799356, 5302910.445060551166534 ] } },
{ "type": "Feature", "properties": { "stop_id": 2908, "stop_code": 15110, "stop_name": "Elmwood Ave & Amherst St", "stop_desc": null, "stop_lat": 42.94088, "stop_lon": -78.878701, "zone_id": 1, "wheelchair_boarding": 0 }, "geometry": { "type": "Point", "coordinates": [ -8780736.829754879698157, 5302977.505027177743614 ] } },
{ "type": "Feature", "properties": { "stop_id": 2979, "stop_code": 15280, "stop_name": "Elmwood Ave & Elmview Place", "stop_desc": null, "stop_lat": 42.93954, "stop_lon": -78.878722, "zone_id": 1, "wheelchair_boarding": 0 }, "geometry": { "type": "Point", "coordinates": [ -8780739.167464185506105, 5302773.741536803543568 ] } },
{ "type": "Feature", "properties": { "stop_id": 2986, "stop_code": 15350, "stop_name": "Elmwood Ave & Grote St", "stop_desc": null, "stop_lat": 42.942477, "stop_lon": -78.878593, "zone_id": 1, "wheelchair_boarding": 0 }, "geometry": { "type": "Point", "coordinates": [ -8780724.807249873876572, 5303220.354322432540357 ] } },
{ "type": "Feature", "properties": { "stop_id": 2989, "stop_code": 15390, "stop_name": "Elmwood Ave & Hertel Ave", "stop_desc": null, "stop_lat": 42.94738, "stop_lon": -78.877983, "zone_id": 1, "wheelchair_boarding": 0 }, "geometry": { "type": "Point", "coordinates": [ -8780656.902360489591956, 5303965.972953730262816 ] } },
{ "type": "Feature", "properties": { "stop_id": 2990, "stop_code": 15400, "stop_name": "Elmwood Ave & Hertel Ave", "stop_desc": null, "stop_lat": 42.948037, "stop_lon": -78.878383, "zone_id": 1, "wheelchair_boarding": 0 }, "geometry": { "type": "Point", "coordinates": [ -8780701.430156806483865, 5304065.890058335848153 ] } },
{ "type": "Feature", "properties": { "stop_id": 3000, "stop_code": 15340, "stop_name": "Elmwood Ave & Great Arrow Ave", "stop_desc": null, "stop_lat": 42.942209, "stop_lon": -78.878292, "zone_id": 1, "wheelchair_boarding": 0 }, "geometry": { "type": "Point", "coordinates": [ -8780691.300083145499229, 5303179.60021248832345 ] } },
{ "type": "Feature", "properties": { "stop_id": 3619, "stop_code": 23340, "stop_name": "Hertel Ave & Grove St", "stop_desc": null, "stop_lat": 42.947689, "stop_lon": -78.883132, "zone_id": 1, "wheelchair_boarding": 0 }, "geometry": { "type": "Point", "coordinates": [ -8781230.086418583989143, 5304012.965797032229602 ] } },
{ "type": "Feature", "properties": { "stop_id": 3621, "stop_code": 23353, "stop_name": "Hertel Ave & Botsford Place", "stop_desc": null, "stop_lat": 42.947829, "stop_lon": -78.874491, "zone_id": 1, "wheelchair_boarding": 0 }, "geometry": { "type": "Point", "coordinates": [ -8780268.174698639661074, 5304034.257130546495318 ] } },
{ "type": "Feature", "properties": { "stop_id": 3880, "stop_code": 23810, "stop_name": "Hertel Ave & Rosalia St", "stop_desc": null, "stop_lat": 42.947739, "stop_lon": -78.873413, "zone_id": 1, "wheelchair_boarding": 0 }, "geometry": { "type": "Point", "coordinates": [ -8780148.172287564724684, 5304020.569839157164097 ] } },
{ "type": "Feature", "properties": { "stop_id": 3892, "stop_code": 23920, "stop_name": "Hertel Ave & Value Plaza", "stop_desc": null, "stop_lat": 42.94772, "stop_lon": -78.876292, "zone_id": 1, "wheelchair_boarding": 0 }, "geometry": { "type": "Point", "coordinates": [ -8780468.661101559177041, 5304017.680302420631051 ] } },
{ "type": "Feature", "properties": { "stop_id": 3893, "stop_code": 23930, "stop_name": "Hertel Ave & Value Plaza", "stop_desc": null, "stop_lat": 42.947807, "stop_lon": -78.87634, "zone_id": 1, "wheelchair_boarding": 0 }, "geometry": { "type": "Point", "coordinates": [ -8780474.004437115043402, 5304030.911346361972392 ] } },
{ "type": "Feature", "properties": { "stop_id": 3906, "stop_code": 23470, "stop_name": "Hertel Ave & Elmwood Ave", "stop_desc": null, "stop_lat": 42.947659, "stop_lon": -78.878022, "zone_id": 1, "wheelchair_boarding": 0 }, "geometry": { "type": "Point", "coordinates": [ -8780661.243820630013943, 5304008.403374723158777 ] } },
{ "type": "Feature", "properties": { "stop_id": 3907, "stop_code": 23480, "stop_name": "Hertel Ave & Elmwood Ave", "stop_desc": null, "stop_lat": 42.947788, "stop_lon": -78.878452, "zone_id": 1, "wheelchair_boarding": 0 }, "geometry": { "type": "Point", "coordinates": [ -8780709.111201671883464, 5304028.021806433796883 ] } },
{ "type": "Feature", "properties": { "stop_id": 3909, "stop_code": 23500, "stop_name": "Hertel Ave & Grove St", "stop_desc": null, "stop_lat": 42.947788, "stop_lon": -78.88309, "zone_id": 1, "wheelchair_boarding": 0 }, "geometry": { "type": "Point", "coordinates": [ -8781225.410999970510602, 5304028.021806433796883 ] } },
{ "type": "Feature", "properties": { "stop_id": 3923, "stop_code": 23660, "stop_name": "Hertel Ave & Norris St", "stop_desc": null, "stop_lat": 42.947698, "stop_lon": -78.88184, "zone_id": 1, "wheelchair_boarding": 0 }, "geometry": { "type": "Point", "coordinates": [ -8781086.261636478826404, 5304014.334524159319699 ] } },
{ "type": "Feature", "properties": { "stop_id": 3924, "stop_code": 23670, "stop_name": "Hertel Ave & Norris St", "stop_desc": null, "stop_lat": 42.947788, "stop_lon": -78.881121, "zone_id": 1, "wheelchair_boarding": 0 }, "geometry": { "type": "Point", "coordinates": [ -8781006.222922597080469, 5304028.021806433796883 ] } },
{ "type": "Feature", "properties": { "stop_id": 10736, "stop_code": 1781, "stop_name": "Amherst St & Elmwood Ave", "stop_desc": null, "stop_lat": 42.94051, "stop_lon": -78.878034, "zone_id": 1, "wheelchair_boarding": 0 }, "geometry": { "type": "Point", "coordinates": [ -8780662.579654520377517, 5302921.241530675441027 ] } },
{ "type": "Feature", "properties": { "stop_id": 1862, "stop_code": 2100, "stop_name": "Amherst St & Peter St", "stop_desc": null, "stop_lat": 42.939208, "stop_lon": -78.88743, "zone_id": 1, "wheelchair_boarding": 0 }, "geometry": { "type": "Point", "coordinates": [ -8781708.537590011954308, 5302723.257536592893302 ] } },
{ "type": "Feature", "properties": { "stop_id": 3666, "stop_code": 21590, "stop_name": "1014 Grant St", "stop_desc": null, "stop_lat": 42.93988, "stop_lon": -78.890742, "zone_id": 1, "wheelchair_boarding": 0 }, "geometry": { "type": "Point", "coordinates": [ -8782077.227743519470096, 5302825.442301082424819 ] } },
{ "type": "Feature", "properties": { "stop_id": 3681, "stop_code": 21600, "stop_name": "1016 Grant St", "stop_desc": null, "stop_lat": 42.939548, "stop_lon": -78.890861, "zone_id": 1, "wheelchair_boarding": 0 }, "geometry": { "type": "Point", "coordinates": [ -8782090.474762924015522, 5302774.958022096194327 ] } },
{ "type": "Feature", "properties": { "stop_id": 3737, "stop_code": 23420, "stop_name": "Hertel Ave & Deer St", "stop_desc": null, "stop_lat": 42.945618, "stop_lon": -78.893171, "zone_id": 1, "wheelchair_boarding": 0 }, "geometry": { "type": "Point", "coordinates": [ -8782347.622786657884717, 5303698.011798294261098 ] } },
{ "type": "Feature", "properties": { "stop_id": 3744, "stop_code": 21830, "stop_name": "Military Rd & Grote St", "stop_desc": null, "stop_lat": 42.942277, "stop_lon": -78.891692, "zone_id": 1, "wheelchair_boarding": 0 }, "geometry": { "type": "Point", "coordinates": [ -8782182.981259774416685, 5303189.940790751948953 ] } },
{ "type": "Feature", "properties": { "stop_id": 3873, "stop_code": 23875, "stop_name": "Hertel Ave & Florian St", "stop_desc": null, "stop_lat": 42.947059, "stop_lon": -78.886112, "zone_id": 1, "wheelchair_boarding": 0 }, "geometry": { "type": "Point", "coordinates": [ -8781561.818501148372889, 5303917.155395458452404 ] } },
{ "type": "Feature", "properties": { "stop_id": 3878, "stop_code": 23780, "stop_name": "Hertel Ave & Pavonia St", "stop_desc": null, "stop_lat": 42.946739, "stop_lon": -78.88723, "zone_id": 1, "wheelchair_boarding": 0 }, "geometry": { "type": "Point", "coordinates": [ -8781686.273691855370998, 5303868.490170190110803 ] } },
{ "type": "Feature", "properties": { "stop_id": 3888, "stop_code": 23880, "stop_name": "Hertel Ave & Tuxedo Place", "stop_desc": null, "stop_lat": 42.947267, "stop_lon": -78.88571, "zone_id": 1, "wheelchair_boarding": 0 }, "geometry": { "type": "Point", "coordinates": [ -8781517.068065848201513, 5303948.787927544675767 ] } },
{ "type": "Feature", "properties": { "stop_id": 3913, "stop_code": 23550, "stop_name": "Hertel Ave & Jasper Parish Dr", "stop_desc": null, "stop_lat": 42.94675, "stop_lon": -78.888851, "zone_id": 1, "wheelchair_boarding": 0 }, "geometry": { "type": "Point", "coordinates": [ -8781866.722586430609226, 5303870.163033109158278 ] } },
{ "type": "Feature", "properties": { "stop_id": 3918, "stop_code": 23600, "stop_name": "Hertel Ave & Military Rd", "stop_desc": null, "stop_lat": 42.946248, "stop_lon": -78.89058, "zone_id": 1, "wheelchair_boarding": 0 }, "geometry": { "type": "Point", "coordinates": [ -8782059.193986013531685, 5303793.819957049563527 ] } },
{ "type": "Feature", "properties": { "stop_id": 3919, "stop_code": 23610, "stop_name": "Hertel Ave & Military Rd", "stop_desc": null, "stop_lat": 42.946369, "stop_lon": -78.890632, "zone_id": 1, "wheelchair_boarding": 0 }, "geometry": { "type": "Point", "coordinates": [ -8782064.982599532231688, 5303812.221318834461272 ] } },
{ "type": "Feature", "properties": { "stop_id": 3927, "stop_code": 23540, "stop_name": "Hertel Ave & Jasper Parish Dr", "stop_desc": null, "stop_lat": 42.94655, "stop_lon": -78.8895, "zone_id": 1, "wheelchair_boarding": 0 }, "geometry": { "type": "Point", "coordinates": [ -8781938.968935955315828, 5303839.747390348464251 ] } },
{ "type": "Feature", "properties": { "stop_id": 3953, "stop_code": 23410, "stop_name": "Hertel Ave & Deer St", "stop_desc": null, "stop_lat": 42.945418, "stop_lon": -78.893581, "zone_id": 1, "wheelchair_boarding": 0 }, "geometry": { "type": "Point", "coordinates": [ -8782393.263777883723378, 5303667.596714844927192 ] } },
{ "type": "Feature", "properties": { "stop_id": 4744, "stop_code": 34390, "stop_name": "Military Rd & Sayre St", "stop_desc": null, "stop_lat": 42.947629, "stop_lon": -78.891133, "zone_id": 1, "wheelchair_boarding": 0 }, "geometry": { "type": "Point", "coordinates": [ -8782120.753664419054985, 5304003.840954632498324 ] } },
{ "type": "Feature", "properties": { "stop_id": 4765, "stop_code": 34380, "stop_name": "Military Rd & Sayre St", "stop_desc": null, "stop_lat": 42.948309, "stop_lon": -78.890742, "zone_id": 1, "wheelchair_boarding": 0 }, "geometry": { "type": "Point", "coordinates": [ -8782077.227743519470096, 5304107.256355960853398 ] } },
{ "type": "Feature", "properties": { "stop_id": 4776, "stop_code": 33980, "stop_name": "Military Rd & American Brass", "stop_desc": null, "stop_lat": 42.949177, "stop_lon": -78.890632, "zone_id": 1, "wheelchair_boarding": 0 }, "geometry": { "type": "Point", "coordinates": [ -8782064.982599532231688, 5304239.264734047465026 ] } },
{ "type": "Feature", "properties": { "stop_id": 4777, "stop_code": 33990, "stop_name": "Military Rd & American Brass", "stop_desc": null, "stop_lat": 42.948399, "stop_lon": -78.891154, "zone_id": 1, "wheelchair_boarding": 0 }, "geometry": { "type": "Point", "coordinates": [ -8782123.091373726725578, 5304120.943774099461734 ] } },
{ "type": "Feature", "properties": { "stop_id": 4779, "stop_code": 34010, "stop_name": "Military Rd & Lansing St", "stop_desc": null, "stop_lat": 42.94236, "stop_lon": -78.891984, "zone_id": 1, "wheelchair_boarding": 0 }, "geometry": { "type": "Point", "coordinates": [ -8782215.486551085487008, 5303202.562394405715168 ] } },
{ "type": "Feature", "properties": { "stop_id": 4791, "stop_code": 34140, "stop_name": "Military Rd & Hertel Ave", "stop_desc": null, "stop_lat": 42.945949, "stop_lon": -78.891162, "zone_id": 1, "wheelchair_boarding": 0 }, "geometry": { "type": "Point", "coordinates": [ -8782123.981929652392864, 5303748.348978506401181 ] } },
{ "type": "Feature", "properties": { "stop_id": 4792, "stop_code": 34150, "stop_name": "Military Rd & Hertel Ave", "stop_desc": null, "stop_lat": 42.946278, "stop_lon": -78.89125, "zone_id": 1, "wheelchair_boarding": 0 }, "geometry": { "type": "Point", "coordinates": [ -8782133.778044844046235, 5303798.382274784147739 ] } },
{ "type": "Feature", "properties": { "stop_id": 4125, "stop_code": 36250, "stop_name": "Niagara St & Tonawanda St", "stop_desc": null, "stop_lat": 42.9295, "stop_lon": -78.897653, "zone_id": 1, "wheelchair_boarding": 0 }, "geometry": { "type": "Point", "coordinates": [ -8782846.556744394823909, 5301247.177044928073883 ] } },
{ "type": "Feature", "properties": { "stop_id": 4131, "stop_code": 36290, "stop_name": "1709 Niagara St", "stop_desc": null, "stop_lat": 42.93113, "stop_lon": -78.899461, "zone_id": 1, "wheelchair_boarding": 0 }, "geometry": { "type": "Point", "coordinates": [ -8783047.822383748367429, 5301494.998780624940991 ] } },
{ "type": "Feature", "properties": { "stop_id": 4446, "stop_code": 36140, "stop_name": "Niagara St & Potomac Ave", "stop_desc": null, "stop_lat": 42.924389, "stop_lon": -78.89812, "zone_id": 1, "wheelchair_boarding": 0 }, "geometry": { "type": "Point", "coordinates": [ -8782898.54294659383595, 5300470.153986481018364 ] } },
{ "type": "Feature", "properties": { "stop_id": 4660, "stop_code": 35620, "stop_name": "Niagara St & Bird Ave", "stop_desc": null, "stop_lat": 42.925918, "stop_lon": -78.897792, "zone_id": 1, "wheelchair_boarding": 0 }, "geometry": { "type": "Point", "coordinates": [ -8782862.03015361353755, 5300702.600418489426374 ] } },
{ "type": "Feature", "properties": { "stop_id": 4677, "stop_code": 35250, "stop_name": "1675 Niagara St", "stop_desc": null, "stop_lat": 42.930108, "stop_lon": -78.898173, "zone_id": 1, "wheelchair_boarding": 0 }, "geometry": { "type": "Point", "coordinates": [ -8782904.442879606038332, 5301339.61530580278486 ] } },
{ "type": "Feature", "properties": { "stop_id": 4678, "stop_code": 35260, "stop_name": "1700 Niagara St", "stop_desc": null, "stop_lat": 42.93093, "stop_lon": -78.899492, "zone_id": 1, "wheelchair_boarding": 0 }, "geometry": { "type": "Point", "coordinates": [ -8783051.273287961259484, 5301464.590852695517242 ] } },
{ "type": "Feature", "properties": { "stop_id": 4690, "stop_code": 35630, "stop_name": "Niagara St & Bird Ave", "stop_desc": null, "stop_lat": 42.926159, "stop_lon": -78.897843, "zone_id": 1, "wheelchair_boarding": 0 }, "geometry": { "type": "Point", "coordinates": [ -8782867.707447642460465, 5300739.239002471789718 ] } },
{ "type": "Feature", "properties": { "stop_id": 4714, "stop_code": 36130, "stop_name": "Niagara St & Potomac Ave", "stop_desc": null, "stop_lat": 42.924038, "stop_lon": -78.89801, "zone_id": 1, "wheelchair_boarding": 0 }, "geometry": { "type": "Point", "coordinates": [ -8782886.297802604734898, 5300416.793978175148368 ] } },
{ "type": "Feature", "properties": { "stop_id": 4731, "stop_code": 35780, "stop_name": "Niagara St & Forest Ave", "stop_desc": null, "stop_lat": 42.927688, "stop_lon": -78.897462, "zone_id": 1, "wheelchair_boarding": 0 }, "geometry": { "type": "Point", "coordinates": [ -8782825.294721651822329, 5300971.692113477736712 ] } },
{ "type": "Feature", "properties": { "stop_id": 4732, "stop_code": 35790, "stop_name": "Niagara St & Forest Ave", "stop_desc": null, "stop_lat": 42.928198, "stop_lon": -78.897601, "zone_id": 1, "wheelchair_boarding": 0 }, "geometry": { "type": "Point", "coordinates": [ -8782840.76813087053597, 5301049.228443585336208 ] } },
{ "type": "Feature", "properties": { "stop_id": 450, "stop_code": 42940, "stop_name": "Plymouth Ave & Hampshire St", "stop_desc": null, "stop_lat": 42.91131, "stop_lon": -78.894662, "zone_id": 1, "wheelchair_boarding": 0 }, "geometry": { "type": "Point", "coordinates": [ -8782513.600147429853678, 5298482.052932153455913 ] } },
{ "type": "Feature", "properties": { "stop_id": 2227, "stop_code": 17500, "stop_name": "Ferry St & West Ave", "stop_desc": null, "stop_lat": 42.915028, "stop_lon": -78.897743, "zone_id": 1, "wheelchair_boarding": 0 }, "geometry": { "type": "Point", "coordinates": [ -8782856.575498566031456, 5299047.172458063811064 ] } },
{ "type": "Feature", "properties": { "stop_id": 2255, "stop_code": 17510, "stop_name": "Ferry St & West Ave", "stop_desc": null, "stop_lat": 42.91519, "stop_lon": -78.897293, "zone_id": 1, "wheelchair_boarding": 0 }, "geometry": { "type": "Point", "coordinates": [ -8782806.481727708131075, 5299071.796515387482941 ] } },
{ "type": "Feature", "properties": { "stop_id": 2260, "stop_code": 17410, "stop_name": "Ferry St & Niagara St", "stop_desc": null, "stop_lat": 42.915088, "stop_lon": -78.898892, "zone_id": 1, "wheelchair_boarding": 0 }, "geometry": { "type": "Point", "coordinates": [ -8782984.481593487784266, 5299056.292471746914089 ] } },
{ "type": "Feature", "properties": { "stop_id": 2263, "stop_code": 17430, "stop_name": "Ferry St & Plymout Ave", "stop_desc": null, "stop_lat": 42.915058, "stop_lon": -78.896213, "zone_id": 1, "wheelchair_boarding": 0 }, "geometry": { "type": "Point", "coordinates": [ -8782686.256677649915218, 5299051.732463794760406 ] } },
{ "type": "Feature", "properties": { "stop_id": 2264, "stop_code": 17440, "stop_name": "Ferry St & Plymouth Ave", "stop_desc": null, "stop_lat": 42.915239, "stop_lon": -78.895692, "zone_id": 1, "wheelchair_boarding": 0 }, "geometry": { "type": "Point", "coordinates": [ -8782628.259222947061062, 5299079.244545480236411 ] } },
{ "type": "Feature", "properties": { "stop_id": 3572, "stop_code": 22803, "stop_name": "Hampshire St & Niagara St", "stop_desc": null, "stop_lat": 42.908948, "stop_lon": -78.899732, "zone_id": 1, "wheelchair_boarding": 0 }, "geometry": { "type": "Point", "coordinates": [ -8783077.989965751767159, 5298123.057105828076601 ] } },
{ "type": "Feature", "properties": { "stop_id": 4121, "stop_code": 36210, "stop_name": "Niagara St & School St", "stop_desc": null, "stop_lat": 42.910249, "stop_lon": -78.899963, "zone_id": 1, "wheelchair_boarding": 0 }, "geometry": { "type": "Point", "coordinates": [ -8783103.704768124967813, 5298320.791885720565915 ] } },
{ "type": "Feature", "properties": { "stop_id": 4122, "stop_code": 36220, "stop_name": "Niagara St & School St", "stop_desc": null, "stop_lat": 42.91043, "stop_lon": -78.900101, "zone_id": 1, "wheelchair_boarding": 0 }, "geometry": { "type": "Point", "coordinates": [ -8783119.066857855767012, 5298348.30182072147727 ] } },
{ "type": "Feature", "properties": { "stop_id": 4650, "stop_code": 35520, "stop_name": "Niagara St & Albany St", "stop_desc": null, "stop_lat": 42.913318, "stop_lon": -78.899543, "zone_id": 1, "wheelchair_boarding": 0 }, "geometry": { "type": "Point", "coordinates": [ -8783056.9505819901824, 5298787.255800664424896 ] } },
{ "type": "Feature", "properties": { "stop_id": 4651, "stop_code": 35530, "stop_name": "Niagara St & Albany St", "stop_desc": null, "stop_lat": 42.913189, "stop_lon": -78.899742, "zone_id": 1, "wheelchair_boarding": 0 }, "geometry": { "type": "Point", "coordinates": [ -8783079.103160660713911, 5298767.648345375433564 ] } },
{ "type": "Feature", "properties": { "stop_id": 4687, "stop_code": 35650, "stop_name": "Niagara St & Breckenridge St", "stop_desc": null, "stop_lat": 42.917229, "stop_lon": -78.899252, "zone_id": 1, "wheelchair_boarding": 0 }, "geometry": { "type": "Point", "coordinates": [ -8783024.556610172614455, 5299381.730771836824715 ] } },
{ "type": "Feature", "properties": { "stop_id": 4716, "stop_code": 35770, "stop_name": "Niagara St & West Ferry St", "stop_desc": null, "stop_lat": 42.915379, "stop_lon": -78.899504, "zone_id": 1, "wheelchair_boarding": 0 }, "geometry": { "type": "Point", "coordinates": [ -8783052.609121849760413, 5299100.524664084427059 ] } },
{ "type": "Feature", "properties": { "stop_id": 4729, "stop_code": 35760, "stop_name": "Niagara St & West Ferry St", "stop_desc": null, "stop_lat": 42.915609, "stop_lon": -78.89927, "zone_id": 1, "wheelchair_boarding": 0 }, "geometry": { "type": "Point", "coordinates": [ -8783026.560361005365849, 5299135.484963887371123 ] } },
{ "type": "Feature", "properties": { "stop_id": 4730, "stop_code": 35640, "stop_name": "Niagara St & Breckenridge St", "stop_desc": null, "stop_lat": 42.916919, "stop_lon": -78.899131, "zone_id": 1, "wheelchair_boarding": 0 }, "geometry": { "type": "Point", "coordinates": [ -8783011.086951784789562, 5299334.609159573912621 ] } },
{ "type": "Feature", "properties": { "stop_id": 4737, "stop_code": 35850, "stop_name": "Niagara St & Hampshire St", "stop_desc": null, "stop_lat": 42.909008, "stop_lon": -78.899343, "zone_id": 1, "wheelchair_boarding": 0 }, "geometry": { "type": "Point", "coordinates": [ -8783034.686683833599091, 5298132.176219864748418 ] } },
{ "type": "Feature", "properties": { "stop_id": 4738, "stop_code": 35860, "stop_name": "Niagara St & Hampshire St", "stop_desc": null, "stop_lat": 42.90926, "stop_lon": -78.899813, "zone_id": 1, "wheelchair_boarding": 0 }, "geometry": { "type": "Point", "coordinates": [ -8783087.006844505667686, 5298170.476595742627978 ] } },
{ "type": "Feature", "properties": { "stop_id": 10007, "stop_code": 17413, "stop_name": "Ferry St & Niagara St", "stop_desc": null, "stop_lat": 42.915209, "stop_lon": -78.899243, "zone_id": 1, "wheelchair_boarding": 0 }, "geometry": { "type": "Point", "coordinates": [ -8783023.554734753444791, 5299074.68452635128051 ] } },
{ "type": "Feature", "properties": { "stop_id": 11639, "stop_code": 58909, "stop_name": "Niagara St & Prospect Ave", "stop_desc": null, "stop_lat": 42.910948, "stop_lon": -78.899802, "zone_id": 0, "wheelchair_boarding": 0 }, "geometry": { "type": "Point", "coordinates": [ -8783085.782330106943846, 5298427.032357381656766 ] } },
{ "type": "Feature", "properties": { "stop_id": 422, "stop_code": 43060, "stop_name": "Porter Ave & Busti Ave", "stop_desc": null, "stop_lat": 42.900439, "stop_lon": -78.89406, "zone_id": 1, "wheelchair_boarding": 0 }, "geometry": { "type": "Point", "coordinates": [ -8782446.585813973098993, 5296829.90463126078248 ] } },
{ "type": "Feature", "properties": { "stop_id": 431, "stop_code": 43170, "stop_name": "Porter Ave & Niagara St", "stop_desc": null, "stop_lat": 42.90116, "stop_lon": -78.892462, "zone_id": 1, "wheelchair_boarding": 0 }, "geometry": { "type": "Point", "coordinates": [ -8782268.69726768322289, 5296939.471448090858757 ] } },
{ "type": "Feature", "properties": { "stop_id": 1926, "stop_code": 210, "stop_name": "7th St & Porter Ave", "stop_desc": null, "stop_lat": 42.900658, "stop_lon": -78.893131, "zone_id": 1, "wheelchair_boarding": 0 }, "geometry": { "type": "Point", "coordinates": [ -8782343.170007023960352, 5296863.184846521355212 ] } },
{ "type": "Feature", "properties": { "stop_id": 3216, "stop_code": 27997, "stop_name": "Lakeview Ave & Porter Ave", "stop_desc": null, "stop_lat": 42.899159, "stop_lon": -78.895251, "zone_id": 1, "wheelchair_boarding": 0 }, "geometry": { "type": "Point", "coordinates": [ -8782579.167327508330345, 5296635.392495575360954 ] } },
{ "type": "Feature", "properties": { "stop_id": 3248, "stop_code": 26090, "stop_name": "7th St", "stop_desc": null, "stop_lat": 42.898967, "stop_lon": -78.89193, "zone_id": 1, "wheelchair_boarding": 0 }, "geometry": { "type": "Point", "coordinates": [ -8782209.475298583507538, 5296606.216023498214781 ] } },
{ "type": "Feature", "properties": { "stop_id": 3249, "stop_code": 26100, "stop_name": "Jersey St & Busti Ave", "stop_desc": null, "stop_lat": 42.898419, "stop_lon": -78.893011, "zone_id": 1, "wheelchair_boarding": 0 }, "geometry": { "type": "Point", "coordinates": [ -8782329.811668129637837, 5296522.942009140737355 ] } },
{ "type": "Feature", "properties": { "stop_id": 3250, "stop_code": 26110, "stop_name": "Jersey St & Lakeview Ave", "stop_desc": null, "stop_lat": 42.898148, "stop_lon": -78.893612, "zone_id": 1, "wheelchair_boarding": 0 }, "geometry": { "type": "Point", "coordinates": [ -8782396.714682098478079, 5296481.761155091226101 ] } },
{ "type": "Feature", "properties": { "stop_id": 90, "stop_code": 46940, "stop_name": "Seneca St & Main St", "stop_desc": null, "stop_lat": 42.880619, "stop_lon": -78.876252, "zone_id": 1, "wheelchair_boarding": 0 }, "geometry": { "type": "Point", "coordinates": [ -8780464.208321925252676, 5293818.458457131870091 ] } },
{ "type": "Feature", "properties": { "stop_id": 454, "stop_code": 43503, "stop_name": "Erie Canal Harbor Station", "stop_desc": null, "stop_lat": 42.877769, "stop_lon": -78.877031, "zone_id": 1, "wheelchair_boarding": 0 }, "geometry": { "type": "Point", "coordinates": [ -8780550.92620525509119, 5293385.509685576893389 ] } },
{ "type": "Feature", "properties": { "stop_id": 462, "stop_code": 43500, "stop_name": "Special Events Station", "stop_desc": null, "stop_lat": 42.876489, "stop_lon": -78.877212, "zone_id": 1, "wheelchair_boarding": 0 }, "geometry": { "type": "Point", "coordinates": [ -8780571.075033087283373, 5293191.069025275297463 ] } },
{ "type": "Feature", "properties": { "stop_id": 464, "stop_code": 43502, "stop_name": "Erie Canal Harbor Station", "stop_desc": null, "stop_lat": 42.87778, "stop_lon": -78.876803, "zone_id": 1, "wheelchair_boarding": 0 }, "geometry": { "type": "Point", "coordinates": [ -8780525.545361353084445, 5293387.180677484720945 ] } },
{ "type": "Feature", "properties": { "stop_id": 466, "stop_code": 43504, "stop_name": "Seneca Station", "stop_desc": null, "stop_lat": 42.881517, "stop_lon": -78.875651, "zone_id": 1, "wheelchair_boarding": 0 }, "geometry": { "type": "Point", "coordinates": [ -8780397.305307960137725, 5293954.879441483877599 ] } },
{ "type": "Feature", "properties": { "stop_id": 467, "stop_code": 43505, "stop_name": "Seneca Station", "stop_desc": null, "stop_lat": 42.880909, "stop_lon": -78.875992, "zone_id": 1, "wheelchair_boarding": 0 }, "geometry": { "type": "Point", "coordinates": [ -8780435.265254318714142, 5293862.514014519751072 ] } },
{ "type": "Feature", "properties": { "stop_id": 474, "stop_code": 43501, "stop_name": "Special Events Station", "stop_desc": null, "stop_lat": 42.876399, "stop_lon": -78.877523, "zone_id": 1, "wheelchair_boarding": 0 }, "geometry": { "type": "Point", "coordinates": [ -8780605.695394722744823, 5293177.397568112239242 ] } },
{ "type": "Feature", "properties": { "stop_id": 513, "stop_code": 46040, "stop_name": "Marine Dr & Main St", "stop_desc": null, "stop_lat": 42.877169, "stop_lon": -78.877413, "zone_id": 1, "wheelchair_boarding": 0 }, "geometry": { "type": "Point", "coordinates": [ -8780593.450250737369061, 5293294.365123865194619 ] } },
{ "type": "Feature", "properties": { "stop_id": 514, "stop_code": 46050, "stop_name": "Scott St & Main St", "stop_desc": null, "stop_lat": 42.877248, "stop_lon": -78.876933, "zone_id": 1, "wheelchair_boarding": 0 }, "geometry": { "type": "Point", "coordinates": [ -8780540.016895156353712, 5293306.36577382683754 ] } },
{ "type": "Feature", "properties": { "stop_id": 538, "stop_code": 46053, "stop_name": "Marine Dr & Commercial St", "stop_desc": null, "stop_lat": 42.877788, "stop_lon": -78.878822, "zone_id": 1, "wheelchair_boarding": 0 }, "geometry": { "type": "Point", "coordinates": [ -8780750.299413265660405, 5293388.39594451058656 ] } },
{ "type": "Feature", "properties": { "stop_id": 577, "stop_code": 46380, "stop_name": "Seneca St & Butler Place", "stop_desc": null, "stop_lat": 42.87929, "stop_lon": -78.869261, "zone_id": 1, "wheelchair_boarding": 0 }, "geometry": { "type": "Point", "coordinates": [ -8779685.973761789500713, 5293616.565120561048388 ] } },
{ "type": "Feature", "properties": { "stop_id": 715, "stop_code": 56780, "stop_name": "Washington St & Buffalo News", "stop_desc": null, "stop_lat": 42.877919, "stop_lon": -78.875672, "zone_id": 1, "wheelchair_boarding": 0 }, "geometry": { "type": "Point", "coordinates": [ -8780399.643017264083028, 5293408.295964484103024 ] } },
{ "type": "Feature", "properties": { "stop_id": 717, "stop_code": 56810, "stop_name": "Washington St & Exchange St", "stop_desc": null, "stop_lat": 42.879169, "stop_lon": -78.875473, "zone_id": 1, "wheelchair_boarding": 0 }, "geometry": { "type": "Point", "coordinates": [ -8780377.490438599139452, 5293598.183776180259883 ] } },
{ "type": "Feature", "properties": { "stop_id": 718, "stop_code": 56817, "stop_name": "Washington St & Exchange St", "stop_desc": null, "stop_lat": 42.87895, "stop_lon": -78.875403, "zone_id": 1, "wheelchair_boarding": 0 }, "geometry": { "type": "Point", "coordinates": [ -8780369.698074243962765, 5293564.915153632871807 ] } },
{ "type": "Feature", "properties": { "stop_id": 804, "stop_code": 56880, "stop_name": "Washington St & Scott St", "stop_desc": null, "stop_lat": 42.87738, "stop_lon": -78.876084, "zone_id": 1, "wheelchair_boarding": 0 }, "geometry": { "type": "Point", "coordinates": [ -8780445.506647473201156, 5293326.417527038604021 ] } },
{ "type": "Feature", "properties": { "stop_id": 930, "stop_code": 56890, "stop_name": "Washington St & Seneca St", "stop_desc": null, "stop_lat": 42.88032, "stop_lon": -78.874953, "zone_id": 1, "wheelchair_boarding": 0 }, "geometry": { "type": "Point", "coordinates": [ -8780319.604303386062384, 5293773.035875115543604 ] } },
{ "type": "Feature", "properties": { "stop_id": 931, "stop_code": 56900, "stop_name": "Washington St & Seneca St", "stop_desc": null, "stop_lat": 42.880599, "stop_lon": -78.875052, "zone_id": 1, "wheelchair_boarding": 0 }, "geometry": { "type": "Point", "coordinates": [ -8780330.624932972714305, 5293815.420150460675359 ] } },
{ "type": "Feature", "properties": { "stop_id": 932, "stop_code": 56930, "stop_name": "Washington St & Swan St", "stop_desc": null, "stop_lat": 42.881819, "stop_lon": -78.874632, "zone_id": 1, "wheelchair_boarding": 0 }, "geometry": { "type": "Point", "coordinates": [ -8780283.870746841654181, 5294000.758659669198096 ] } },
{ "type": "Feature", "properties": { "stop_id": 933, "stop_code": 56940, "stop_name": "Washington St & South Division St", "stop_desc": null, "stop_lat": 42.882479, "stop_lon": -78.874242, "zone_id": 1, "wheelchair_boarding": 0 }, "geometry": { "type": "Point", "coordinates": [ -8780240.45614543184638, 5294101.025282430462539 ] } },
{ "type": "Feature", "properties": { "stop_id": 934, "stop_code": 56950, "stop_name": "Washington St & South Division St", "stop_desc": null, "stop_lat": 42.88277, "stop_lon": -78.874382, "zone_id": 1, "wheelchair_boarding": 0 }, "geometry": { "type": "Point", "coordinates": [ -8780256.040874142199755, 5294145.23408864531666 ] } },
{ "type": "Feature", "properties": { "stop_id": 999, "stop_code": 52000, "stop_name": "South Division St & Michigan Ave", "stop_desc": null, "stop_lat": 42.881558, "stop_lon": -78.869301, "zone_id": 1, "wheelchair_boarding": 0 }, "geometry": { "type": "Point", "coordinates": [ -8779690.426541421562433, 5293961.108063891530037 ] } },
{ "type": "Feature", "properties": { "stop_id": 1011, "stop_code": 52010, "stop_name": "South Division & Washington St", "stop_desc": null, "stop_lat": 42.882608, "stop_lon": -78.874683, "zone_id": 1, "wheelchair_boarding": 0 }, "geometry": { "type": "Point", "coordinates": [ -8780289.548040872439742, 5294120.622974923811853 ] } },
{ "type": "Feature", "properties": { "stop_id": 1155, "stop_code": 51380, "stop_name": "Swan St & Michigan Ave", "stop_desc": null, "stop_lat": 42.880758, "stop_lon": -78.869101, "zone_id": 1, "wheelchair_boarding": 0 }, "geometry": { "type": "Point", "coordinates": [ -8779668.162643263116479, 5293839.574715692549944 ] } },
{ "type": "Feature", "properties": { "stop_id": 1207, "stop_code": 54860, "stop_name": "Upper Terrace & Pearl St", "stop_desc": null, "stop_lat": 42.879807, "stop_lon": -78.877731, "zone_id": 1, "wheelchair_boarding": 0 }, "geometry": { "type": "Point", "coordinates": [ -8780628.849848808720708, 5293695.103998049162328 ] } },
{ "type": "Feature", "properties": { "stop_id": 1677, "stop_code": 8690, "stop_name": "Church St & Main St", "stop_desc": null, "stop_lat": 42.883, "stop_lon": -78.875492, "zone_id": 1, "wheelchair_boarding": 0 }, "geometry": { "type": "Point", "coordinates": [ -8780379.605508921667933, 5294180.175904329866171 ] } },
{ "type": "Feature", "properties": { "stop_id": 2350, "stop_code": 16524, "stop_name": "Exchange St & Washington St", "stop_desc": null, "stop_lat": 42.879037, "stop_lon": -78.875193, "zone_id": 1, "wheelchair_boarding": 0 }, "geometry": { "type": "Point", "coordinates": [ -8780346.320981174707413, 5293578.131441599689424 ] } },
{ "type": "Feature", "properties": { "stop_id": 2588, "stop_code": 18790, "stop_name": "Franklin St & Seneca St", "stop_desc": null, "stop_lat": 42.881438, "stop_lon": -78.878023, "zone_id": 1, "wheelchair_boarding": 0 }, "geometry": { "type": "Point", "coordinates": [ -8780661.355140119791031, 5293942.877961203455925 ] } },
{ "type": "Feature", "properties": { "stop_id": 2939, "stop_code": 14850, "stop_name": "Ellicott St & North Division St", "stop_desc": null, "stop_lat": 42.88283, "stop_lon": -78.872841, "zone_id": 1, "wheelchair_boarding": 0 }, "geometry": { "type": "Point", "coordinates": [ -8780084.497538829222322, 5294154.349332352168858 ] } },
{ "type": "Feature", "properties": { "stop_id": 2940, "stop_code": 14860, "stop_name": "Ellicott St & MTC", "stop_desc": null, "stop_lat": 42.883348, "stop_lon": -78.872411, "zone_id": 1, "wheelchair_boarding": 0 }, "geometry": { "type": "Point", "coordinates": [ -8780036.630157789215446, 5294233.044638316147029 ] } },
{ "type": "Feature", "properties": { "stop_id": 4094, "stop_code": 36660, "stop_name": "North Division & Ellicott St", "stop_desc": null, "stop_lat": 42.883208, "stop_lon": -78.873471, "zone_id": 1, "wheelchair_boarding": 0 }, "geometry": { "type": "Point", "coordinates": [ -8780154.628818029537797, 5294211.775571547448635 ] } },
{ "type": "Feature", "properties": { "stop_id": 4095, "stop_code": 36670, "stop_name": "North Division St & Elm St", "stop_desc": null, "stop_lat": 42.8826, "stop_lon": -78.870042, "zone_id": 1, "wheelchair_boarding": 0 }, "geometry": { "type": "Point", "coordinates": [ -8779772.914284100756049, 5294119.407612955197692 ] } },
{ "type": "Feature", "properties": { "stop_id": 4096, "stop_code": 36680, "stop_name": "North Division & Main St", "stop_desc": null, "stop_lat": 42.883238, "stop_lon": -78.874592, "zone_id": 1, "wheelchair_boarding": 0 }, "geometry": { "type": "Point", "coordinates": [ -8780279.417967209592462, 5294216.333224651403725 ] } },
{ "type": "Feature", "properties": { "stop_id": 4097, "stop_code": 36690, "stop_name": "North Division St & Oak St", "stop_desc": null, "stop_lat": 42.882759, "stop_lon": -78.871211, "zone_id": 1, "wheelchair_boarding": 0 }, "geometry": { "type": "Point", "coordinates": [ -8779903.04676883853972, 5294143.56296159606427 ] } },
{ "type": "Feature", "properties": { "stop_id": 4221, "stop_code": 42050, "stop_name": "Pearl St & Lower Terrace", "stop_desc": null, "stop_lat": 42.87912, "stop_lon": -78.878121, "zone_id": 1, "wheelchair_boarding": 0 }, "geometry": { "type": "Point", "coordinates": [ -8780672.264450218528509, 5293590.740101520903409 ] } },
{ "type": "Feature", "properties": { "stop_id": 4222, "stop_code": 42070, "stop_name": "Pearl St & Seneca St", "stop_desc": null, "stop_lat": 42.880958, "stop_lon": -78.877192, "zone_id": 1, "wheelchair_boarding": 0 }, "geometry": { "type": "Point", "coordinates": [ -8780568.848643271252513, 5293869.957905008457601 ] } },
{ "type": "Feature", "properties": { "stop_id": 4223, "stop_code": 42080, "stop_name": "Pearl St & Swan St", "stop_desc": null, "stop_lat": 42.882219, "stop_lon": -78.876821, "zone_id": 1, "wheelchair_boarding": 0 }, "geometry": { "type": "Point", "coordinates": [ -8780527.549112187698483, 5294061.526181784458458 ] } },
{ "type": "Feature", "properties": { "stop_id": 4287, "stop_code": 42240, "stop_name": "Perry St & Michigan Ave", "stop_desc": null, "stop_lat": 42.874798, "stop_lon": -78.870504, "zone_id": 1, "wheelchair_boarding": 0 }, "geometry": { "type": "Point", "coordinates": [ -8779824.343888845294714, 5292934.200867802836001 ] } },
{ "type": "Feature", "properties": { "stop_id": 4288, "stop_code": 42250, "stop_name": "Perry St & Michigan Ave", "stop_desc": null, "stop_lat": 42.875017, "stop_lon": -78.870962, "zone_id": 1, "wheelchair_boarding": 0 }, "geometry": { "type": "Point", "coordinates": [ -8779875.328215630725026, 5292967.467251935042441 ] } },
{ "type": "Feature", "properties": { "stop_id": 4603, "stop_code": 32380, "stop_name": "Marine Dr & Marine Dr Apts East", "stop_desc": null, "stop_lat": 42.877969, "stop_lon": -78.879853, "zone_id": 1, "wheelchair_boarding": 0 }, "geometry": { "type": "Point", "coordinates": [ -8780865.069808272644877, 5293415.891403097659349 ] } },
{ "type": "Feature", "properties": { "stop_id": 4605, "stop_code": 32400, "stop_name": "Marine Dr & Commercial St", "stop_desc": null, "stop_lat": 42.877788, "stop_lon": -78.879701, "zone_id": 1, "wheelchair_boarding": 0 }, "geometry": { "type": "Point", "coordinates": [ -8780848.149245671927929, 5293388.39594451058656 ] } },
{ "type": "Feature", "properties": { "stop_id": 10705, "stop_code": 51375, "stop_name": "Swan St & Michigan Ave", "stop_desc": null, "stop_lat": 42.880638, "stop_lon": -78.868892, "zone_id": 1, "wheelchair_boarding": 0 }, "geometry": { "type": "Point", "coordinates": [ -8779644.896869687363505, 5293821.344849379733205 ] } },
{ "type": "Feature", "properties": { "stop_id": 10940, "stop_code": 16511, "stop_name": "Exchange St & Amtrak Station", "stop_desc": null, "stop_lat": 42.878879, "stop_lon": -78.874892, "zone_id": 1, "wheelchair_boarding": 0 }, "geometry": { "type": "Point", "coordinates": [ -8780312.813814448192716, 5293554.129461164586246 ] } },
{ "type": "Feature", "properties": { "stop_id": 10941, "stop_code": 16521, "stop_name": "Exchange St & Social Security Admin", "stop_desc": null, "stop_lat": 42.878059, "stop_lon": -78.86937, "zone_id": 1, "wheelchair_boarding": 0 }, "geometry": { "type": "Point", "coordinates": [ -8779698.107586286962032, 5293429.563208106905222 ] } },
{ "type": "Feature", "properties": { "stop_id": 10942, "stop_code": 16520, "stop_name": "Exchange St & Social Security Admin", "stop_desc": null, "stop_lat": 42.877939, "stop_lon": -78.869521, "zone_id": 1, "wheelchair_boarding": 0 }, "geometry": { "type": "Point", "coordinates": [ -8779714.916829397901893, 5293411.334139190614223 ] } },
{ "type": "Feature", "properties": { "stop_id": 10943, "stop_code": 36600, "stop_name": "North Carroll St & Seneca St", "stop_desc": null, "stop_lat": 42.878898, "stop_lon": -78.867951, "zone_id": 1, "wheelchair_boarding": 0 }, "geometry": { "type": "Point", "coordinates": [ -8779540.14522885158658, 5293557.015772017650306 ] } },
{ "type": "Feature", "properties": { "stop_id": 10944, "stop_code": 36590, "stop_name": "North Carroll St & Exchange St", "stop_desc": null, "stop_lat": 42.877958, "stop_lon": -78.868433, "zone_id": 1, "wheelchair_boarding": 0 }, "geometry": { "type": "Point", "coordinates": [ -8779593.801223412156105, 5293414.220406072214246 ] } },
{ "type": "Feature", "properties": { "stop_id": 10945, "stop_code": 33573, "stop_name": "Michigan Ave & Buffalo Creek Casino", "stop_desc": null, "stop_lat": 42.87439, "stop_lon": -78.87143, "zone_id": 1, "wheelchair_boarding": 0 }, "geometry": { "type": "Point", "coordinates": [ -8779927.425737321376801, 5292872.225453298538923 ] } },
{ "type": "Feature", "properties": { "stop_id": 10953, "stop_code": 33572, "stop_name": "Michigan Ave & Buffalo Creek Casino", "stop_desc": null, "stop_lat": 42.874338, "stop_lon": -78.871262, "zone_id": 1, "wheelchair_boarding": 0 }, "geometry": { "type": "Point", "coordinates": [ -8779908.724062867462635, 5292864.326655402779579 ] } },
{ "type": "Feature", "properties": { "stop_id": 11167, "stop_code": 16515, "stop_name": "Exchange St & Pay2Park", "stop_desc": null, "stop_lat": 42.878868, "stop_lon": -78.87405, "zone_id": 1, "wheelchair_boarding": 0 }, "geometry": { "type": "Point", "coordinates": [ -8780219.082803199067712, 5293552.458439501002431 ] } },
{ "type": "Feature", "properties": { "stop_id": 11381, "stop_code": 14861, "stop_name": "Ellicott St & MTC", "stop_desc": null, "stop_lat": 42.883348, "stop_lon": -78.872411, "zone_id": 1, "wheelchair_boarding": 0 }, "geometry": { "type": "Point", "coordinates": [ -8780036.630157789215446, 5294233.044638316147029 ] } },
{ "type": "Feature", "properties": { "stop_id": 11382, "stop_code": 14862, "stop_name": "Ellicott St & MTC", "stop_desc": null, "stop_lat": 42.883348, "stop_lon": -78.872411, "zone_id": 1, "wheelchair_boarding": 0 }, "geometry": { "type": "Point", "coordinates": [ -8780036.630157789215446, 5294233.044638316147029 ] } },
{ "type": "Feature", "properties": { "stop_id": 11587, "stop_code": 51305, "stop_name": "Swan St & Elm St", "stop_desc": null, "stop_lat": 42.88103, "stop_lon": -78.870501, "zone_id": 0, "wheelchair_boarding": 0 }, "geometry": { "type": "Point", "coordinates": [ -8779824.009930374100804, 5293880.895877272821963 ] } },
{ "type": "Feature", "properties": { "stop_id": 11588, "stop_code": 29282, "stop_name": "Lower Terrace & Erie St", "stop_desc": null, "stop_lat": 42.881649, "stop_lon": -78.878863, "zone_id": 0, "wheelchair_boarding": 0 }, "geometry": { "type": "Point", "coordinates": [ -8780754.863512387499213, 5293974.932582071051002 ] } },
{ "type": "Feature", "properties": { "stop_id": 830, "stop_code": 58190, "stop_name": "William St & Newell St", "stop_desc": null, "stop_lat": 42.884858, "stop_lon": -78.83265, "zone_id": 1, "wheelchair_boarding": 0 }, "geometry": { "type": "Point", "coordinates": [ -8775610.455884357914329, 5294462.44978338945657 ] } },
{ "type": "Feature", "properties": { "stop_id": 831, "stop_code": 58200, "stop_name": "William St & Newell St", "stop_desc": null, "stop_lat": 42.884978, "stop_lon": -78.831781, "zone_id": 1, "wheelchair_boarding": 0 }, "geometry": { "type": "Point", "coordinates": [ -8775513.719246860593557, 5294480.6808966929093 ] } },
{ "type": "Feature", "properties": { "stop_id": 862, "stop_code": 58090, "stop_name": "William St & Lewis St", "stop_desc": null, "stop_lat": 42.884858, "stop_lon": -78.829602, "zone_id": 1, "wheelchair_boarding": 0 }, "geometry": { "type": "Point", "coordinates": [ -8775271.154076419770718, 5294462.44978338945657 ] } },
{ "type": "Feature", "properties": { "stop_id": 863, "stop_code": 58100, "stop_name": "William St & Lewis St", "stop_desc": null, "stop_lat": 42.884948, "stop_lon": -78.829553, "zone_id": 1, "wheelchair_boarding": 0 }, "geometry": { "type": "Point", "coordinates": [ -8775265.699421372264624, 5294476.123115043155849 ] } },
{ "type": "Feature", "properties": { "stop_id": 865, "stop_code": 58130, "stop_name": "William St & Metcalfe St", "stop_desc": null, "stop_lat": 42.88494, "stop_lon": -78.833962, "zone_id": 1, "wheelchair_boarding": 0 }, "geometry": { "type": "Point", "coordinates": [ -8775756.507056279107928, 5294474.90770697593689 ] } },
{ "type": "Feature", "properties": { "stop_id": 960, "stop_code": 57820, "stop_name": "William St & Depot St", "stop_desc": null, "stop_lat": 42.884858, "stop_lon": -78.827482, "zone_id": 1, "wheelchair_boarding": 0 }, "geometry": { "type": "Point", "coordinates": [ -8775035.15675593726337, 5294462.44978338945657 ] } },
{ "type": "Feature", "properties": { "stop_id": 977, "stop_code": 57550, "stop_name": "William St & Metcalfe St", "stop_desc": null, "stop_lat": 42.884998, "stop_lon": -78.834033, "zone_id": 1, "wheelchair_boarding": 0 }, "geometry": { "type": "Point", "coordinates": [ -8775764.410740124061704, 5294483.719419023953378 ] } },
{ "type": "Feature", "properties": { "stop_id": 978, "stop_code": 57560, "stop_name": "1164 William St", "stop_desc": null, "stop_lat": 42.884929, "stop_lon": -78.827642, "zone_id": 1, "wheelchair_boarding": 0 }, "geometry": { "type": "Point", "coordinates": [ -8775052.967874463647604, 5294473.236521145328879 ] } },
{ "type": "Feature", "properties": { "stop_id": 979, "stop_code": 57570, "stop_name": "1223 William St", "stop_desc": null, "stop_lat": 42.88485, "stop_lon": -78.825903, "zone_id": 1, "wheelchair_boarding": 0 }, "geometry": { "type": "Point", "coordinates": [ -8774859.383279975503683, 5294461.234377096407115 ] } }
]
}
